     2.11           OBSERVATION DATA    M (MIXED)           RINEX VERSION / TYPE
teqc  2019Feb25     KASI/KOREA          20250415 00:17:31UTCPGM / RUN BY / DATE
Linux 2.4.20-8|x86|gcc -static|Linux 32|=+                  COMMENT
  0.0000      (antenna height)                              COMMENT
 +36.39942706 (latitude)                                    COMMENT
+127.37448509 (longitude)                                   COMMENT
0116.854      (elevation)                                   COMMENT
BIT 2 OF LLI FLAGS DATA COLLECTED UNDER A/S CONDITION       COMMENT
23902M002 (COGO code)                                       COMMENT
DAEJ                                                        MARKER NAME
23902M002                                                   MARKER NUMBER
KASI GPS            KASI/KOREA                              OBSERVER / AGENCY
5412K48145          TRIMBLE NETR9       5.44                REC # / TYPE / VERS
4923363230          TRM59800.00     SCIS                    ANT # / TYPE
 -3120041.7752  4084614.9818  3764027.3812                  APPROX POSITION XYZ
        0.0000        0.0000        0.0000                  ANTENNA: DELTA H/E/N
     1     1                                                WAVELENGTH FACT L1/2
    10    L1    L2    L5    C1    P1    P2    C5    S1    S2# / TYPES OF OBSERV
          S5                                                # / TYPES OF OBSERV
    18                                                      LEAP SECONDS
 SNR is mapped to RINEX snr flag value [0-9]                COMMENT
  L1 & L2: min(max(int(snr_dBHz/6), 0), 9)                  COMMENT
  2025     4    15     0     0    0.0000000     GPS         TIME OF FIRST OBS
                                                            END OF HEADER
 25  4 15  0  0  0.0000000  0 21R10G09R18G27G02G04R16G16G26R07R08R19
                                R09G07G08E26E13E04E19E21E23
 122308027.749 5                                  22944660.195    22944659.059
                                        30.100
 121580618.443 6  94738124.86745  90790689.413 7  23136018.820
  23136030.523    23136033.090          36.800          32.400          44.500
 112271707.884 6  87322355.619 6                  21032240.539    21032240.219
  21032248.867                          41.600          41.100
 106381872.496 7  82895050.81948  79441089.276 8  20243808.188
  20243818.105    20243818.250          47.300          50.200          52.700
 118646254.174 6  92451631.40044                  22577615.984
  22577625.781                          39.300          25.800
 122875847.264 5  95747443.96943  91757980.938 7  23382512.297
  23382525.652    23382530.605          33.800          19.900          42.700
 110114385.523 7  85644569.388 7                  20613641.445    20613640.219
  20613648.676                          45.200          43.200
 113245216.555 7  88243038.56745                  21549836.789
  21549845.813                          42.400          30.900
 122393494.118 6  95371560.66543  91397741.876 7  23290682.586
  23290697.230    23290697.184          37.200          22.200          43.600
 127044683.549 5  98812530.931 5                  23733026.008    23733025.262
  23733036.918                          30.800          33.400
 126635650.220 5  98494474.084 5                  23648329.680    23648328.801
  23648337.586                          33.200          31.500
 103768266.110 5  80708517.600 7                  19398337.930    19398336.875
  19398344.086                          35.500          42.900
 106336104.313 7  82705880.823 7                  19913334.828    19913334.098
  19913340.609                          44.800          45.600
 120569333.100 6  93950187.79345                  22943584.797
  22943593.004                          39.600          34.800
 106025596.679 7  82617418.26048  79175022.403 8  20175998.602
  20176008.707    20176008.629          46.200          48.900          52.000
 133618163.175 7                  99779853.813 7  25426686.391
                  25426696.340          42.100                          44.900
 131256880.094 7                  98016564.231 7  24977347.391
                  24977358.785          43.200                          46.300
 136820960.916 6                 102171516.230 7  26036168.219
                  26036178.617          39.600                          43.700
 136966467.343 5                 102280155.737 6  26063866.750
                  26063877.961          33.800                          36.200
 127659670.275 7                  95330311.663 8  24292826.234
                  24292835.375          45.100                          48.800
 127969763.209 7                  95561873.049 7  24351835.578
                  24351844.004          45.700                          47.400
 25  4 15  0  0  1.0000000  0 21R10G09R18G27G02G04R16G16G26R07R08R19
                                R09G07G08E26E13E04E19E21E23
 122304782.309 5                                  22944051.953    22944050.258
                                        30.200
 121582453.671 6  94739554.90945  90792059.887 7  23136368.094
  23136379.539    23136382.250          36.400          31.600          44.800
 112274719.503 6  87324697.994 6                  21032804.273    21032804.238
  21032812.969                          41.800          41.200
 106383352.738 7  82896204.25148  79442194.642 8  20244090.172
  20244099.848    20244099.855          46.700          50.300          52.600
 118642958.671 6  92449063.47344                  22576989.172
  22576998.805                          39.200          26.300
 122878752.735 5  95749707.94843  91760150.619 7  23383065.242
  23383078.570    23383083.500          33.400          19.600          42.300
 110115915.224 7  85645759.151 7                  20613927.227    20613927.043
  20613935.160                          44.800          43.600
 113247087.110 6  88244496.14045                  21550192.563
  21550201.699                          41.700          31.500
 122395988.769 6  95373504.53643  91399604.758 7  23291157.398
  23291172.121    23291172.008          37.100          22.300          43.700
 127047673.460 5  98814856.408 5                  23733584.195    23733583.789
  23733595.547                          31.200          33.300
 126636460.701 5  98495104.442 5                  23648482.180    23648480.145
  23648488.906                          33.700          31.700
 103767939.563 5  80708263.626 7                  19398277.117    19398275.797
  19398283.027                          34.500          43.700
 106334315.922 7  82704489.847 7                  19912999.656    19912999.125
  19913005.684                          44.600          46.000
 120566464.233 6  93947952.32045                  22943037.844
  22943046.902                          39.400          34.900
 106024593.472 7  82616636.53948  79174273.261 8  20175807.656
  20175817.977    20175817.793          45.800          49.000          52.100
 133615532.292 6                  99777889.177 7  25426186.023
                  25426195.695          41.700                          44.900
 131256634.320 7                  98016380.725 7  24977300.305
                  24977311.969          43.000                          46.400
 136821790.688 6                 102172135.865 7  26036326.414
                  26036336.488          39.400                          43.800
 136969209.558 5                 102282203.482 6  26064388.703
                  26064399.688          33.500                          36.100
 127660414.456 7                  95330867.385 8  24292967.836
                  24292976.980          45.100                          49.100
 127968660.432 7                  95561049.553 7  24351625.930
                  24351634.191          45.300                          47.800
 25  4 15  0  0  2.0000000  0 21R10G09R18G27G02G04R16G16G26R07R08R19
                                R09G07G08E26E13E04E19E21E23
 122301536.747 5                                  22943443.133    22943441.777
                                        30.000
 121584289.307 6  94740985.27245  90793430.651 7  23136717.070
  23136728.863    23136731.539          36.700          31.700          44.500
 112277731.673 6  87327040.800 6                  21033369.547    21033368.801
  21033377.137                          41.500          41.600
 106384833.381 7  82897358.00448  79443300.316 8  20244371.711
  20244381.594    20244381.586          46.700          50.300          52.600
 118639663.383 6  92446495.72244                  22576362.742
  22576371.676                          39.200          28.100
 122881658.362 5  95751972.05743  91762320.406 7  23383618.250
  23383631.504    23383636.223          33.400          19.600          42.500
 110117445.310 7  85646949.212 7                  20614213.164    20614213.461
  20614221.508                          45.200          44.000
 113248957.818 6  88245953.83745                  21550549.023
  21550557.648                          41.400          31.400
 122398483.520 6  95375448.50443  91401467.704 7  23291632.430
  23291646.711    23291646.703          37.500          22.200          44.100
 127050663.643 5  98817182.075 5                  23734143.930    23734142.164
  23734154.211                          31.100          33.900
 126637271.904 5  98495735.377 5                  23648634.250    23648631.531
  23648640.348                          33.500          31.200
 103767613.949 5  80708010.335 7                  19398215.930    19398214.777
  19398222.262                          34.700          43.700
 106332527.789 7  82703099.072 7                  19912664.719    19912664.211
  19912670.727                          44.700          46.400
 120563595.556 6  93945716.98545                  22942492.508
  22942500.906                          39.000          35.000
 106023590.726 7  82615855.18248  79173524.455 8  20175616.758
  20175626.992    20175627.055          46.000          49.000          52.500
 133612901.610 7                  99775924.726 7  25425685.008
                  25425694.938          42.100                          44.900
 131256389.024 7                  98016197.532 7  24977253.656
                  24977265.293          43.200                          46.400
 136822620.896 6                 102172755.809 7  26036484.367
                  26036494.508          39.000                          43.600
 136971951.771 5                 102284251.267 6  26064910.461
                  26064921.445          33.400                          36.200
 127661158.705 7                  95331423.149 8  24293109.508
                  24293118.641          45.500                          49.200
 127967557.682 7                  95560226.073 8  24351415.906
                  24351424.328          45.100                          48.100
 25  4 15  0  0  3.0000000  0 21R10G09R18G27G02G04R16G16G26R07R08R19
                                R09G07G08E26E13E04E19E21E23
 122298291.158 5                                  22942834.492    22942832.973
                                        30.100
 121586125.373 6  94742415.97745  90794801.749 7  23137066.211
  23137078.313    23137080.734          36.900          31.400          44.500
 112280744.503 6  87329384.100 7                  21033934.297    21033933.066
  21033941.668                          41.500          42.100
 106386314.491 7  82898512.10948  79444406.341 8  20244653.813
  20244663.551    20244663.488          46.500          50.300          52.600
 118636368.437 6  92443928.23144                  22575735.586
  22575744.641                          39.500          28.100
 122884564.167 5  95754236.31343  91764490.329 7  23384171.547
  23384184.422    23384189.254          32.900          19.600          42.700
 110118975.877 7  85648139.639 7                  20614500.078    20614499.992
  20614508.188                          45.100          44.100
 113250828.756 6  88247411.69445                  21550904.836
  21550913.703                          41.400          30.900
 122400978.396 6  95377392.56143  91403330.800 7  23292107.141
  23292121.574    23292121.488          37.300          23.600          43.700
 127053654.010 5  98819507.963 5                  23734702.734    23734700.598
  23734712.953                          31.300          33.100
 126638083.799 5  98496366.910 5                  23648786.477    23648783.664
  23648791.875                          33.600          30.800
 103767289.256 5  80707757.801 7                  19398155.609    19398154.156
  19398161.500                          35.100          44.100
 106330739.979 7  82701708.558 7                  19912329.391    19912329.621
  19912336.008                          44.500          46.300
 120560727.175 6  93943481.88445                  22941946.633
  22941955.223                          39.000          34.700
 106022588.511 7  82615074.23748  79172776.052 8  20175426.281
  20175436.332    20175436.184          46.400          49.100          52.400
 133610271.195 7                  99773960.435 7  25425184.367
                  25425194.438          42.300                          45.200
 131256144.222 7                  98016014.746 7  24977207.281
                  24977218.688          43.700                          46.300
 136823451.508 6                 102173376.091 7  26036642.469
                  26036652.340          39.300                          43.600
 136974694.135 5                 102286299.118 6  26065432.453
                  26065443.559          34.300                          36.200
 127661903.097 7                  95331979.015 8  24293251.117
                  24293260.281          45.600                          49.200
 127966455.033 7                  95559402.662 8  24351206.063
                  24351214.398          45.300                          48.300
 25  4 15  0  0  4.0000000  0 21R10G09R18G27G02G04R16G16G26R07R08R19
                                R09G07G08E26E13E04E19E21E23
 122295045.581 5                                  22942225.219    22942224.168
                                        30.400
 121587961.886 6  94743847.01945  90796173.159 7  23137416.148
  23137427.723    23137430.223          36.900          31.200          44.300
 112283757.947 6  87331727.894 7                  21034499.125    21034497.531
  21034506.277                          41.200          42.200
 106387796.073 7  82899666.58848  79445512.709 8  20244935.367
  20244945.383    20244945.395          46.700          50.500          52.600
 118633073.748 6  92441360.94144                  22575108.766
  22575117.715                          39.100          27.400
 122887470.150 5  95756500.70443  91766660.369 7  23384724.430
  23384737.441    23384742.465          34.300          19.600          42.600
 110120506.822 7  85649330.388 7                  20614787.094    20614786.449
  20614795.020                          44.900          44.400
 113252699.891 6  88248869.71645                  21551260.594
  21551269.621                          41.800          31.100
 122403473.515 6  95379336.80943  91405193.998 7  23292581.797
  23292596.211    23292596.293          37.500          22.300          43.900
 127056644.717 5  98821834.036 5                  23735260.906    23735259.645
  23735271.785                          31.300          33.100
 126638896.522 5  98496998.963 5                  23648939.047    23648935.668
  23648943.590                          34.100          32.600
 103766965.517 5  80707506.005 7                  19398095.367    19398093.660
  19398101.055                          35.300          44.400
 106328952.540 7  82700318.324 7                  19911995.344    19911994.977
  19912001.281                          44.500          46.400
 120557859.069 6  93941247.00045                  22941400.977
  22941409.684                          39.400          34.800
 106021586.802 7  82614293.69048  79172028.031 8  20175235.320
  20175245.680    20175245.590          46.400          49.000          52.700
 133607641.018 7                  99771996.345 7  25424684.180
                  25424693.773          42.400                          44.800
 131255899.944 7                  98015832.336 7  24977160.883
                  24977172.180          43.600                          46.200
 136824282.578 6                 102173996.683 7  26036800.594
                  26036810.719          39.600                          43.600
 136977436.61515                 102288347.040 6  26065954.375
                  26065965.477          33.400                          36.400
 127662647.583 7                  95332534.957 8  24293392.805
                  24293401.887          45.100                          49.100
 127965352.471 7                  95558579.318 8  24350996.336
                  24351004.719          45.700                          48.600
 25  4 15  0  0  5.0000000  0 21R10G09R18G27G02G04R16G16G26R07R08R19
                                R09G07G08E26E13E04E19E21E23
 122291799.950 5                                  22941617.141    22941615.598
                                        30.300
 121589798.802 6  94745278.38445  90797544.904 7  23137765.313
  23137777.371    23137779.641          37.100          31.600          44.400
 112286771.971 6  87334072.135 7                  21035063.102    21035061.973
  21035070.930                          41.300          42.200
 106389278.100 7  82900821.41748  79446619.423 8  20245217.328
  20245227.371    20245227.438          46.600          50.400          52.800
 118629779.369 6  92438793.90144                  22574481.148
  22574490.969                          38.900          27.500
 122890376.323 5  95758765.25743  91768830.543 7  23385277.766
  23385290.352    23385295.172          34.500          20.100          42.600
 110122038.211 7  85650521.467 7                  20615073.648    20615073.168
  20615081.637                          45.000          44.200
 113254571.247 6  88250327.92545                  21551616.891
  21551625.832                          41.800          31.000
 122405968.710 6  95381281.11143  91407057.299 7  23293057.031
  23293071.125    23293071.070          37.300          21.800          44.100
 127059635.708 5  98824160.332 5                  23735818.664    23735818.531
  23735830.613                          31.900          33.700
 126639709.854 5  98497631.613 5                  23649090.039    23649088.082
  23649095.609                          33.800          32.000
 103766642.728 5  80707254.922 7                  19398034.727    19398033.391
  19398040.563                          35.600          44.000
 106327165.419 7  82698928.343 7                  19911660.289    19911660.246
  19911666.645                          44.800          46.700
 120554991.228 6  93939012.32245                  22940854.391
  22940863.816                          39.300          34.800
 106020585.602 7  82613513.52948  79171280.370 8  20175044.883
  20175055.164    20175055.082          46.300          49.000          52.500
 133605011.054 7                  99770032.407 7  25424183.836
                  25424193.523          42.400                          45.100
 131255656.192 7                  98015650.287 7  24977114.703
                  24977125.820          43.300                          46.500
 136825114.075 6                 102174617.605 7  26036958.656
                  26036968.816          38.900                          43.200
 136980179.104 5                 102290395.021 6  26066476.164
                  26066487.184          34.100                          36.500
 127663392.177 7                  95333090.990 8  24293534.547
                  24293543.723          45.500                          49.000
 127964249.959 7                  95557756.018 8  24350786.688
                  24350794.773          45.500                          48.500
 25  4 15  0  0  6.0000000  0 21R10G09R18G27G02G04R16G16G26R07R08R19
                                R09G07G08E26E13E04E19E21E23
 122288554.298 5                                  22941007.281    22941006.355
                                        30.200
 121591636.109 6  94746710.05345  90798916.920 7  23138115.242
  23138127.086    23138129.441          36.100          31.200          44.600
 112289786.581 6  87336416.841 6                  21035627.977    21035627.043
  21035635.617                          41.300          41.900
 106390760.565 7  82901976.58648  79447726.452 8  20245499.086
  20245509.516    20245509.566          46.400          50.300          52.800
 118626485.235 6  92436227.04244                  22573854.359
  22573864.125                          39.000          26.700
 122893282.585 5  95761029.89943  91771000.789 7  23385830.586
  23385843.328    23385848.633          34.200          19.600          42.700
 110123570.021 7  85651712.861 7                  20615360.266    20615359.957
  20615368.449                          45.200          44.200
 113256442.772 6  88251786.25045                  21551973.539
  21551981.836                          41.700          31.400
 122408464.058 6  95383225.53843  91408920.697 7  23293530.859
  23293546.145    23293545.883          37.100          22.200          43.800
 127062626.963 5  98826486.874 5                  23736379.250    23736376.789
  23736389.566                          31.200          33.400
 126640523.998 5  98498264.771 5                  23649241.836    23649240.254
  23649247.582                          34.200          32.300
 103766320.788 5  80707004.544 7                  19397973.805    19397973.164
  19397980.449                          35.000          44.300
 106325378.584 7  82697538.579 7                  19911325.992    19911325.664
  19911332.000                          44.800          46.800
 120552123.598 6  93936777.79545                  22940309.195
  22940318.191                          39.500          34.000
 106019584.878 7  82612733.74448  79170533.084 8  20174854.570
  20174864.816    20174864.707          46.400          49.000          52.200
 133602381.316 7                  99768068.651 7  25423683.273
                  25423692.770          42.700                          45.100
 131255412.888 7                  98015468.607 7  24977068.211
                  24977079.574          43.400                          46.500
 136825945.985 6                 102175238.820 7  26037116.914
                  26037127.406          38.700                          43.500
 136982921.685 5                 102292443.034 6  26066998.031
                  26067009.277          33.200                          36.600
 127664136.869 7                  95333647.086 8  24293676.063
                  24293685.395          45.600                          48.500
 127963147.513 7                  95556932.754 8  24350576.984
                  24350585.016          45.600                          48.300
 25  4 15  0  0  7.0000000  0 21R10G09R18G27G02G04R16G16G26R07R08R19
                                R09G07G08E26E13E04E19E21E23
 122285308.592 4                                  22940399.063    22940397.285
                                        29.400
 121593473.902 5  94748142.09745  90800289.268 7  23138465.055
  23138476.676    23138479.109          35.900          31.500          44.500
 112292801.826 6  87338762.017 7                  21036193.648    21036191.930
  21036200.297                          41.200          42.100
 106392243.471 7  82903132.09148  79448833.818 8  20245781.563
  20245791.730    20245791.711          46.300          50.300          52.500
 118623191.385 6  92433660.40944                  22573227.531
  22573237.215                          39.300          27.500
 122896189.034 5  95763294.66843  91773171.203 7  23386383.438
  23386396.293    23386401.523          33.700          19.900          42.400
 110125102.265 7  85652904.605 7                  20615647.203    20615646.684
  20615655.277                          45.300          44.500
 113258314.517 6  88253244.75545                  21552329.313
  21552337.934                          41.700          31.400
 122410959.555 6  95385170.06043  91410784.225 7  23294006.164
  23294021.016    23294020.672          37.000          22.800          43.200
 127065618.508 5  98828813.592 5                  23736938.969    23736935.949
  23736948.504                          32.100          33.800
 126641338.756 5  98498898.501 5                  23649394.563    23649392.996
  23649399.609                          34.000          32.200
 103765999.778 5  80706754.930 7                  19397914.594    19397913.137
  19397920.453                          34.900          44.000
 106323592.057 7  82696149.071 7                  19910991.938    19910990.969
  19910997.484                          44.900          47.000
 120549256.276 6  93934543.51945                  22939763.633
  22939772.559                          39.600          34.600
 106018584.654 7  82611954.35548  79169786.178 8  20174663.922
  20174674.285    20174674.250          46.000          48.900          52.200
 133599751.824 7                  99766105.062 7  25423183.031
                  25423192.566          42.700                          44.600
 131255170.104 7                  98015287.311 7  24977021.914
                  24977033.422          43.900                          46.300
 136826778.314 6                 102175860.372 7  26037275.398
                  26037285.801          39.300                          43.800
 136985664.313 5                 102294491.106 6  26067519.797
                  26067531.074          33.400                          36.000
 127664881.660 7                  95334203.260 8  24293817.992
                  24293827.141          45.800                          48.400
 127962045.131 7                  95556109.557 8  24350367.039
                  24350375.316          45.300                          48.100
 25  4 15  0  0  8.0000000  0 21R10G09R18G27G02G04R16G16G26R07R08R19
                                R09G07G08E26E13E04E19E21E23
 122282062.886 4                                  22939789.766    22939788.230
                                        29.400
 121595312.047 6  94749574.41345  90801661.921 7  23138814.641
  23138826.258    23138828.867          36.000          31.400          45.100
 112295817.673 6  87341107.686 6                  21036758.117    21036756.676
  21036765.313                          41.400          41.900
 106393726.844 7  82904287.96748  79449941.531 8  20246063.727
  20246074.125    20246074.039          46.100          50.400          52.800
 118619897.843 6  92431094.01144                  22572600.875
  22572610.457                          39.900          27.900
 122899095.686 5  95765559.56543  91775341.718 7  23386936.086
  23386949.438    23386954.664          33.600          19.600          42.300
 110126634.949 7  85654096.686 7                  20615934.453    20615933.863
  20615942.250                          45.400          44.500
 113260186.495 7  88254703.43545                  21552685.289
  21552694.219                          42.100          30.800
 122413455.206 6  95387114.71643  91412647.854 7  23294481.172
  23294496.047    23294495.625          36.900          23.000          43.200
 127068610.302 5  98831140.564 5                  23737496.953    23737494.727
  23737507.426                          32.300          33.700
 126642154.306 5  98499532.817 5                  23649545.406    23649545.172
  23649552.000                          33.300          30.900
 103765679.737 5  80706505.989 7                  19397854.453    19397853.012
  19397860.512                          35.300          44.200
 106321805.896 7  82694759.818 7                  19910657.055    19910656.645
  19910663.039                          44.900          47.500
 120546389.155 6  93932309.40245                  22939218.086
  22939226.980                          39.500          34.700
 106017584.943 7  82611175.35448  79169039.629 8  20174473.633
  20174484.113    20174484.105          46.100          48.900          52.200
 133597122.551 7                  99764141.658 7  25422682.664
                  25422692.211          42.700                          44.700
 131254927.800 7                  98015106.374 7  24976975.938
                  24976987.223          43.200                          46.300
 136827611.067 6                 102176482.224 7  26037433.578
                  26037444.070          39.000                          43.900
 136988406.986 5                 102296539.247 6  26068041.563
                  26068053.094          33.200                          36.200
 127665626.568 7                  95334759.511 8  24293959.680
                  24293968.891          46.000                          48.800
 127960942.817 7                  95555286.408 8  24350157.102
                  24350165.434          45.800                          48.000
 25  4 15  0  0  9.0000000  0 21R10G09R18G27G02G04R16G16G26R07R08R19
                                R09G07G08E26E13E04E19E21E23
 122278817.178 5                                  22939181.445    22939179.090
                                        30.500
 121597150.660 6  94751007.08745  90803034.903 7  23139164.453
  23139176.016    23139178.738          36.100          31.200          44.700
 112298834.119 6  87343453.818 6                  21037322.820    21037321.711
  21037330.379                          41.400          41.700
 106395210.676 7  82905444.19848  79451049.584 8  20246346.023
  20246356.379    20246356.328          46.000          50.400          52.900
 118616604.550 6  92428527.82944                  22571973.789
  22571983.664                          39.200          26.600
 122902002.440 5  95767824.56643  91777512.399 7  23387489.719
  23387502.598    23387507.777          34.000          19.600          42.500
 110128168.089 7  85655289.143 7                  20616221.406    20616220.703
  20616229.230                          45.600          45.000
 113262058.647 7  88256162.25545                  21553041.969
  21553050.484                          42.200          30.900
 122415951.042 6  95389059.53443  91414511.605 7  23294956.156
  23294970.852    23294970.516          37.100          21.700          43.100
 127071602.389 5  98833467.740 5                  23738056.102    23738053.980
  23738066.430                          32.000          33.100
 126642970.595 5  98500167.698 5                  23649698.430    23649697.582
  23649704.559                          33.900          31.600
 103765360.674 5  80706257.804 7                  19397794.609    19397793.316
  19397800.789                          35.200          44.200
 106320020.059 7  82693370.850 7                  19910322.867    19910322.219
  19910328.629                          44.700          47.700
 120543522.337 6  93930075.52845                  22938672.594
  22938681.395                          39.700          35.000
 106016585.757 7  82610396.77448  79168293.471 8  20174283.727
  20174293.930    20174293.973          46.300          48.900          52.100
 133594493.538 7                  99762178.446 7  25422182.305
                  25422191.793          43.000                          44.600
 131254686.027 7                  98014925.821 7  24976929.852
                  24976941.301          43.300                          46.400
 136828444.285 6                 102177104.419 7  26037592.406
                  26037602.660          39.400                          43.600
 136991149.873 5                 102298587.445 6  26068563.703
                  26068574.758          33.300                          36.300
 127666371.569 7                  95335315.862 8  24294101.711
                  24294110.582          45.900                          49.200
 127959840.599 7                  95554463.307 8  24349947.352
                  24349955.750          45.600                          48.300
 25  4 15  0  0 10.0000000  0 21R10G09R18G27G02G04R16G16G26R07R08R19
                                R09G07G08E26E13E04E19E21E23
 122275571.407 5                                  22938570.797    22938570.816
                                        30.200
 121598989.658 6  94752440.07145  90804408.164 7  23139513.953
  23139525.973    23139528.625          36.500          32.000          44.600
 112301851.160 6  87345800.407 6                  21037888.391    21037886.840
  21037895.746                          41.600          40.400
 106396694.924 7  82906600.74948  79452157.960 8  20246628.438
  20246638.641    20246638.801          46.200          50.000          52.600
 118613311.571 6  92425961.86244                  22571346.688
  22571356.941                          38.900          27.600
 122904909.381 5  95770089.71943  91779683.150 7  23388043.258
  23388055.891    23388060.965          34.200          19.600          42.500
 110129701.632 7  85656481.875 7                  20616508.094    20616508.012
  20616516.328                          45.400          43.700
 113263930.990 7  88257621.22545                  21553397.906
  21553406.664                          42.000          30.500
 122418446.954 6  95391004.39143  91416375.444 7  23295430.875
  23295445.848    23295445.480          37.200          21.500          43.700
 127074594.714 5  98835795.076 5                  23738613.148    23738613.250
  23738625.465                          31.700          33.600
 126643787.585 5  98500803.086 5                  23649851.703    23649849.270
  23649857.148                          33.600          32.100
 103765042.452 5  80706010.268 7                  19397734.742    19397734.031
  19397741.273                          35.000          43.600
 106318234.537 7  82691982.105 7                  19909988.094    19909987.836
  19909994.199                          44.900          46.500
 120540655.757 6  93927841.82445                  22938127.180
  22938136.004                          39.400          34.400
 106015587.018 7  82609618.52948  79167547.672 8  20174093.547
  20174103.848    20174104.023          46.100          48.700          52.000
 133591864.745 7                  99760215.371 7  25421682.047
                  25421691.574          43.100                          44.800
 131254444.726 7                  98014745.625 7  24976883.867
                  24976895.473          43.600                          46.400
 136829277.857 6                 102177726.919 7  26037751.078
                  26037761.277          39.600                          43.500
 136993892.749 5                 102300635.677 6  26069085.500
                  26069097.004          32.900                          36.400
 127667116.667 7                  95335872.265 8  24294243.234
                  24294252.469          46.300                          48.900
 127958738.423 7                  95553640.265 8  24349737.750
                  24349746.012          45.700                          48.100
 25  4 15  0  0 11.0000000  0 21R10G09R18G27G02G04R16G16G26R07R08R19
                                R09G07G08E26E13E04E19E21E23
 122272325.511 5                                  22937962.539    22937961.406
                                        30.100
 121600829.086 6  94753873.39245  90805781.747 7  23139864.430
  23139876.070    23139878.828          36.900          32.000          44.800
 112304868.775 6  87348147.423 6                  21038453.461    21038452.051
  21038460.984                          41.400          41.300
 106398179.634 7  82907757.66948  79453266.672 8  20246911.063
  20246921.340    20246921.363          46.300          50.300          53.000
 118610018.835 6  92423396.11244                  22570720.859
  22570730.398                          38.900          26.700
 122907816.512 5  95772355.00843  91781854.044 7  23388596.336
  23388609.219    23388614.301          33.400          19.300          42.600
 110131235.582 7  85657674.953 7                  20616794.008    20616795.137
  20616803.477                          45.400          44.200
 113265803.538 6  88259080.33945                  21553754.227
  21553763.105                          41.400          31.500
 122420943.062 6  95392949.40043  91418239.410 7  23295905.516
  23295920.750    23295920.359          36.700          21.800          43.700
 127077587.302 5  98838122.661 5                  23739172.383    23739172.465
  23739184.414                          31.700          33.400
 126644605.301 5  98501439.095 5                  23650003.008    23650002.031
  23650009.996                          33.500          32.800
 103764725.099 5  80705763.459 7                  19397676.305    19397674.953
  19397682.047                          34.500          43.700
 106316449.346 7  82690593.624 7                  19909654.820    19909653.535
  19909659.875                          44.700          47.000
 120537789.433 6  93925608.32945                  22937581.656
  22937590.438                          39.200          34.400
 106014588.813 7  82608840.71048  79166802.257 8  20173903.539
  20173914.016    20173913.973          46.000          49.100          52.300
 133589236.178 7                  99758252.490 7  25421181.617
                  25421191.277          43.000                          45.100
 131254203.933 7                  98014565.804 7  24976838.148
                  24976849.605          43.200                          46.800
 136830111.881 6                 102178349.737 7  26037909.734
                  26037920.059          39.700                          43.700
 136996635.723 5                 102302684.014 6  26069607.508
                  26069618.848          32.900                          36.200
 127667861.888 7                  95336428.748 8  24294385.227
                  24294394.262          46.300                          48.900
 127957636.305 7                  95552817.254 8  24349527.688
                  24349536.320          45.300                          48.500
 25  4 15  0  0 12.0000000  0 21R10G09R18G27G02G04R16G16G26R07R08R19
                                R09G07G08E26E13E04E19E21E23
 122269079.606 5                                  22937353.867    22937352.379
                                        30.100
 121602668.904 6  94755307.00845  90807155.649 7  23140215.008
  23140226.070    23140228.863          36.400          31.600          45.000
 112307887.012 6  87350494.941 6                  21039018.289    21039017.348
  21039026.289                          41.500          41.800
 106399664.787 7  82908914.92748  79454375.696 8  20247193.805
  20247203.840    20247203.891          46.600          50.300          52.600
 118606726.381 6  92420830.55244                  22570094.625
  22570103.934                          39.300          27.000
 122910723.731 5  95774620.38743  91784025.030 7  23389149.469
  23389162.477    23389167.621          33.700          19.300          42.600
 110132769.941 7  85658868.332 7                  20617081.852    20617082.266
  20617090.637                          45.200          44.600
 113267676.284 6  88260539.62845                  21554110.625
  21554119.660                          41.700          31.100
 122423439.259 6  95394894.48743  91420103.449 7  23296380.477
  23296395.879    23296395.426          36.700          22.200          43.800
 127080580.212 5  98840450.455 5                  23739731.844    23739731.523
  23739743.480                          32.000          33.400
 126645423.816 5  98502075.689 5                  23650157.859    23650155.383
  23650162.773                          33.300          32.600
 103764408.741 5  80705517.385 7                  19397618.438    19397615.379
  19397622.934                          34.900          44.000
 106314664.471 7  82689205.378 7                  19909320.523    19909319.242
  19909325.586                          45.300          46.900
 120534923.355 6  93923375.02245                  22937036.609
  22937045.207                          39.500          34.800
 106013591.083 7  82608063.26148  79166057.203 8  20173713.750
  20173724.066    20173724.098          45.900          49.100          52.100
 133586607.837 7                  99756289.763 7  25420681.461
                  25420691.156          42.800                          44.900
 131253963.612 7                  98014386.353 7  24976792.508
                  24976803.887          43.100                          47.100
 136830946.391 6                 102178972.858 7  26038068.539
                  26038078.902          39.700                          43.500
 136999378.803 5                 102304732.413 6  26070129.555
                  26070140.836          33.300                          36.600
 127668607.195 7                  95336985.311 8  24294527.023
                  24294536.078          46.300                          48.600
 127956534.274 7                  95551994.307 8  24349318.305
                  24349326.734          44.900                          48.200
 25  4 15  0  0 13.0000000  0 21R10G09R18G27G02G04R16G16G26R07R08R19
                                R09G07G08E26E13E04E19E21E23
 122265833.723 5                                  22936745.492    22936743.488
                                        30.100
 121604509.153 5  94756740.96945  90808529.871 7  23140565.406
  23140576.117    23140579.191          35.700          31.700          44.900
 112310905.857 6  87352842.927 7                  21039583.859    21039583.086
  21039591.934                          41.100          42.100
 106401150.377 7  82910072.53448  79455485.080 8  20247476.453
  20247486.586    20247486.586          46.500          50.500          52.700
 118603434.228 6  92418265.22844                  22569467.766
  22569477.313                          39.400          26.900
 122913631.164 5  95776885.89843  91786196.156 7  23389702.867
  23389715.758    23389720.723          34.100          19.000          42.700
 110134304.728 7  85660062.059 7                  20617368.758    20617369.824
  20617377.949                          45.400          44.600
 113269549.251 6  88261999.08545                  21554466.938
  21554475.953                          41.800          31.400
 122425935.636 6  95396839.72443  91421967.622 7  23296855.828
  23296870.941    23296870.488          36.100          22.900          43.700
 127083573.435 5  98842778.548 5                  23740291.492    23740290.785
  23740302.684                          32.200          33.300
 126646242.995 5  98502712.847 5                  23650309.602    23650308.145
  23650315.750                          32.900          32.500
 103764093.254 5  80705272.042 7                  19397558.266    19397556.469
  19397563.926                          34.900          44.200
 106312879.928 7  82687817.413 7                  19908985.844    19908985.098
  19908991.484                          44.700          46.900
 120532057.550 6  93921141.92945                  22936490.891
  22936499.898                          39.600          35.000
 106012593.866 7  82607286.20748  79165312.535 8  20173523.891
  20173534.324    20173534.336          46.400          49.100          52.100
 133583979.737 7                  99754327.225 7  25420181.109
                  25420191.059          43.000                          44.900
 131253723.802 7                  98014207.269 7  24976746.734
                  24976758.336          42.900                          46.700
 136831781.221 6                 102179596.300 7  26038227.359
                  26038237.633          39.900                          43.700
 137002121.904 5                 102306780.848 6  26070651.625
                  26070662.824          33.600                          36.600
 127669352.605 7                  95337541.959 8  24294668.898
                  24294677.926          45.900                          48.500
 127955432.306 7                  95551171.410 8  24349108.500
                  24349117.023          45.100                          48.400
 25  4 15  0  0 14.0000000  0 21R10G09R18G27G02G04R16G16G26R07R08R19
                                R09G07G08E26E13E04E19E21E23
 122262587.789 4                                  22936136.188    22936134.531
                                        29.300
 121606349.862 6  94758175.28345  90809904.380 7  23140914.992
  23140926.258    23140929.477          36.000          31.400          44.700
 112313925.299 6  87355191.379 7                  21040149.695    21040148.684
  21040157.586                          41.100          42.400
 106402636.431 7  82911230.49548  79456594.785 8  20247759.227
  20247769.418    20247769.457          46.500          50.300          52.700
 118600142.334 6  92415700.12744                  22568842.000
  22568851.020                          39.500          27.100
 122916538.772 5  95779151.54843  91788367.388 7  23390255.688
  23390268.840    23390274.352          33.900          19.600          43.200
 110135839.941 7  85661256.119 7                  20617657.141    20617656.918
  20617665.480                          45.500          44.700
 113271422.391 6  88263458.66845                  21554823.703
  21554832.355                          41.800          30.900
 122428432.155 6  95398785.05843  91423831.920 7  23297330.586
  23297346.199    23297345.523          36.200          22.600          43.800
 127086566.943 5  98845106.776 5                  23740850.242    23740850.098
  23740861.875                          32.200          33.100
 126647062.823 5  98503350.545 5                  23650462.672    23650461.113
  23650468.926                          33.000          32.800
 103763778.710 5  80705027.393 7                  19397499.125    19397498.051
  19397505.145                          34.700          44.400
 106311095.707 7  82686429.684 7                  19908651.336    19908651.090
  19908657.238                          44.700          47.300
 120529192.013 6  93918909.05445                  22935946.273
  22935954.707                          39.800          35.100
 106011597.140 7  82606509.54248  79164568.227 8  20173334.367
  20173344.656    20173344.746          45.800          49.000          52.100
 133581351.884 7                  99752364.863 7  25419681.102
                  25419690.840          42.600                          44.800
 131253484.490 7                  98014028.566 7  24976701.180
                  24976712.750          43.000                          46.400
 136832616.544 6                 102180220.077 7  26038386.609
                  26038396.730          39.600                          43.700
 137004865.113 5                 102308829.346 6  26071173.367
                  26071184.863          32.800                          36.400
 127670098.142 7                  95338098.669 8  24294810.836
                  24294819.773          45.700                          48.500
 127954330.404 7                  95550348.559 8  24348898.711
                  24348907.363          45.300                          48.600
 25  4 15  0  0 15.0000000  0 21R10G09R18G27G02G04R16G16G26R07R08R19
                                R09G07G08E26E13E04E19E21E23
 122259341.809 4                                  22935528.852    22935525.504
                                        29.600
 121608190.881 5  94759609.84045  90811279.202 7  23141264.938
  23141276.621    23141279.785          35.800          30.900          44.500
 112316945.335 6  87357540.296 7                  21040715.266    21040714.344
  21040723.359                          41.300          42.300
 106404122.921 7  82912388.79448  79457704.820 8  20248041.742
  20248052.273    20248052.262          46.600          50.300          52.500
 118596850.720 6  92413135.23544                  22568215.367
  22568224.719                          39.600          25.900
 122919446.506 5  95781417.34343  91790538.739 7  23390809.578
  23390822.094    23390827.328          33.700          19.900          42.900
 110137375.599 7  85662450.526 7                  20617944.297    20617944.234
  20617953.016                          45.400          44.700
 113273295.745 6  88264918.42545                  21555179.984
  21555188.723                          41.600          31.300
 122430928.874 5  95400730.53843  91425696.286 7  23297805.609
  23297821.148    23297820.535          35.700          22.900          43.900
 127089560.724 5  98847435.254 5                  23741408.945    23741408.844
  23741421.219                          31.700          33.700
 126647883.408 5  98503988.740 5                  23650614.984    23650614.703
  23650622.004                          32.500          31.900
 103763465.077 5  80704783.475 7                  19397441.313    19397439.820
  19397446.340                          35.100          44.500
 106309311.775 7  82685042.174 7                  19908317.609    19908317.059
  19908323.188                          45.200          47.600
 120526326.718 6  93916676.35345                  22935400.547
  22935409.422                          39.900          34.900
 106010600.919 7  82605733.26248  79163824.290 8  20173144.570
  20173155.129    20173155.086          45.800          49.000          52.100
 133578724.229 7                  99750402.657 7  25419181.070
                  25419190.766          42.700                          44.800
 131253245.677 7                  98013850.226 7  24976655.969
                  24976667.238          43.000                          46.400
 136833452.276 6                 102180844.135 7  26038545.875
                  26038555.648          39.500                          43.900
 137007608.377 5                 102310877.863 6  26071695.258
                  26071707.398          33.300                          36.700
 127670843.765 7                  95338655.464 8  24294952.688
                  24294961.699          45.700                          49.000
 127953228.569 7                  95549525.764 8  24348689.102
                  24348697.629          45.400                          48.600
 25  4 15  0  0 16.0000000  0 21R10G09R18G27G02G04R16G16G26R07R08R19
                                R09G07G08E26E13E04E19E21E23
 122256095.808 5                                  22934918.484    22934916.727
                                        30.100
 121610032.418 5  94761044.80945  90812654.349 7  23141615.641
  23141626.867    23141630.156          35.900          32.100          44.700
 112319965.964 6  87359889.688 7                  21041281.055    21041279.938
  21041289.230                          41.300          42.100
 106405609.884 7  82913547.47148  79458815.215 8  20248324.969
  20248335.262    20248335.230          46.300          50.300          52.700
 118593559.412 6  92410570.58344                  22567589.109
  22567598.316                          39.400          27.000
 122922354.400 5  95783683.22343  91792710.232 7  23391362.305
  23391375.496    23391380.906          33.700          19.600          43.200
 110138911.752 7  85663645.294 7                  20618232.195    20618232.000
  20618240.605                          45.300          44.700
 113275169.295 6  88266378.33545                  21555536.766
  21555545.297                          41.600          31.300
 122433425.650 6  95402676.06343  91427560.791 7  23298280.992
  23298296.402    23298295.848          36.400          22.600          43.800
 127092554.720 5  98849763.971 5                  23741969.102    23741968.652
  23741980.449                          31.900          33.100
 126648704.729 5  98504627.516 5                  23650768.953    23650767.547
  23650775.355                          32.500          32.300
 103763152.412 5  80704540.284 7                  19397382.945    19397381.027
  19397388.043                          35.400          44.400
 106307528.167 7  82683654.929 7                  19907983.828    19907983.031
  19907989.203                          45.200          47.600
 120523461.681 6  93914443.85345                  22934854.906
  22934864.246                          39.800          35.700
 106009605.220 7  82604957.39648  79163080.736 8  20172955.242
  20172965.672    20172965.660          45.300          48.900          52.600
 133576096.841 7                  99748440.655 7  25418681.484
                  25418690.805          42.500                          44.700
 131253007.371 7                  98013672.270 7  24976610.695
                  24976621.898          43.300                          46.500
 136834288.439 6                 102181468.559 7  26038704.547
                  26038714.949          39.600                          43.600
 137010351.757 5                 102312926.485 6  26072217.523
                  26072229.332          33.400                          36.100
 127671589.495 7                  95339212.337 8  24295094.703
                  24295103.570          45.700                          48.900
 127952126.812 7                  95548703.014 8  24348479.523
                  24348487.961          45.000                          48.300
 25  4 15  0  0 17.0000000  0 21R10G09R18G27G02G04R16G16G26R07R08R19
                                R09G07G08E26E13E04E19E21E23
 122252849.831 4                                  22934307.469    22934307.750
                                        29.800
 121611874.353 5  94762480.08245  90814029.811 7  23141966.578
  23141977.645    23141980.531          35.900          31.500          44.700
 112322987.218 6  87362239.545 7                  21041846.391    21041845.375
  21041855.215                          41.200          42.600
 106407097.266 7  82914706.47148  79459925.942 8  20248608.109
  20248618.293    20248618.305          46.500          50.300          52.500
 118590268.405 6  92408006.16344                  22566962.906
  22566972.047                          39.100          27.800
 122925262.478 5  95785949.23843  91794881.846 7  23391916.273
  23391928.934    23391934.355          33.800          20.400          43.200
 110140448.330 7  85664840.401 7                  20618519.445    20618519.699
  20618528.215                          45.800          44.800
 113277043.060 6  88267838.41345                  21555892.813
  21555901.863                          41.700          30.500
 122435922.619 6  95404621.75243  91429425.400 7  23298756.914
  23298771.555    23298770.848          36.700          22.500          44.100
 127095549.007 5  98852092.835 5                  23742530.016    23742528.211
  23742539.664                          31.000          33.000
 126649526.800 5  98505266.883 5                  23650923.164    23650920.945
  23650928.910                          32.200          32.600
 103762840.637 5  80704297.806 7                  19397325.000    19397322.672
  19397329.777                          35.100          44.300
 106305744.862 7  82682267.904 7                  19907649.664    19907649.043
  19907655.316                          45.200          47.500
 120520596.917 6  93912211.57145                  22934310.313
  22934318.996                          39.000          35.100
 106008609.994 7  82604181.89848  79162337.563 8  20172765.242
  20172776.215    20172776.340          45.300          48.900          52.300
 133573469.694 7                  99746478.810 7  25418181.617
                  25418190.945          42.800                          44.200
 131252769.553 7                  98013494.687 7  24976565.203
                  24976576.707          43.600                          46.600
 136835125.037 6                 102182093.292 7  26038864.125
                  26038874.086          39.500                          43.400
 137013095.210 5                 102314975.153 6  26072739.680
                  26072751.176          33.000                          36.200
 127672335.340 7                  95339769.303 8  24295236.398
                  24295245.555          45.600                          48.900
 127951025.130 7                  95547880.340 8  24348269.992
                  24348278.383          44.900                          48.500
 25  4 15  0  0 18.0000000  0 21R10G09R18G27G02G04R16G16G26R07R08R19
                                R09G07G08E26E13E04E19E21E23
 122249603.756 5                                  22933700.672    22933698.883
                                        30.800
 121613716.674 5  94763915.65845  90815405.571 7  23142316.570
  23142328.391    23142331.309          35.800          32.100          44.800
 112326009.081 6  87364589.877 7                  21042412.672    21042411.855
  21042421.281                          41.300          42.200
 106408585.134 7  82915865.84948  79461037.002 8  20248891.438
  20248901.367    20248901.445          46.300          50.300          52.700
 118586977.641 6  92405441.93944                  22566337.133
  22566345.902                          39.200          27.400
 122928170.720 5  95788215.41543  91797053.578 7  23392469.516
  23392482.367    23392487.652          33.500          19.900          42.900
 110141985.315 7  85666035.833 7                  20618807.984    20618807.512
  20618816.008                          45.300          44.700
 113278917.057 6  88269298.66645                  21556249.750
  21556258.402                          41.700          31.400
 122438419.755 6  95406567.57943  91431290.123 7  23299232.359
  23299246.711    23299246.148          36.300          22.600          43.500
 127098543.547 5  98854421.955 5                  23743088.070    23743087.359
  23743099.051                          30.900          32.800
 126650349.607 5  98505906.838 5                  23651076.227    23651074.332
  23651082.672                          32.200          32.800
 103762529.843 5  80704056.073 7                  19397266.586    19397264.355
  19397271.648                          35.000          44.000
 106303961.892 7  82680881.152 7                  19907315.258    19907315.277
  19907321.500                          45.000          47.500
 120517732.420 6  93909979.49645                  22933765.344
  22933773.863                          39.500          34.600
 106007615.279 7  82603406.79248  79161594.763 8  20172576.609
  20172587.023    20172587.148          45.400          49.000          52.300
 133570842.771 7                  99744517.146 7  25417681.445
                  25417690.941          42.800                          44.600
 131252532.256 7                  98013317.477 7  24976520.352
                  24976531.539          43.500                          46.700
 136835962.031 6                 102182718.337 7  26039023.211
                  26039033.355          39.000                          43.000
 137015838.734 5                 102317023.905 6  26073261.813
                  26073273.090          33.500                          36.700
 127673081.277 7                  95340326.341 8  24295378.336
                  24295387.484          45.600                          48.800
 127949923.503 7                  95547057.698 8  24348060.391
                  24348068.809          44.700                          49.100
 25  4 15  0  0 19.0000000  0 21R10G09R18G27G02G04R16G16G26R07R08R19
                                R09G07G08E26E13E04E19E21E23
 122246357.634 5                                  22933090.961    22933090.301
                                        30.300
 121615559.394 5  94765351.54545  90816781.656 7  23142666.945
  23142679.082    23142682.000          35.500          30.900          44.800
 112329031.522 6  87366940.654 7                  21042978.711    21042978.043
  21042987.504                          41.300          42.300
 106410073.413 7  82917025.54148  79462148.390 8  20249174.031
  20249184.660    20249184.531          46.500          50.200          52.600
 118583687.171 6  92402877.93544                  22565710.141
  22565719.586                          39.800          27.600
 122931079.114 5  95790481.67343  91799225.426 7  23393023.383
  23393035.828    23393041.152          33.100          19.900          43.000
 110143522.729 7  85667231.600 7                  20619095.492    20619095.055
  20619103.906                          45.400          44.100
 113280791.214 6  88270759.04745                  21556607.141
  21556615.078                          41.800          31.100
 122440917.012 6  95408513.48043  91433154.947 7  23299707.242
  23299721.926    23299721.336          36.800          22.000          43.400
 127101538.410 5  98856751.261 5                  23743647.156    23743645.805
  23743658.402                          31.000          33.200
 126651173.106 5  98506547.354 5                  23651230.141    23651227.840
  23651236.586                          32.700          32.400
 103762219.966 5  80703815.061 7                  19397208.859    19397206.578
  19397213.766                          35.400          44.000
 106302179.232 7  82679494.645 7                  19906982.430    19906981.457
  19906987.563                          44.900          47.400
 120514868.146 6  93907747.60245                  22933219.695
  22933228.742                          39.700          35.000
 106006621.083 7  82602632.09648  79160852.335 8  20172387.398
  20172397.770    20172397.820          45.400          48.900          52.100
 133568216.079 7                  99742555.653 7  25417181.734
                  25417191.105          43.300                          44.400
 131252295.419 7                  98013140.627 7  24976475.133
                  24976486.457          43.000                          46.700
 136836799.449 6                 102183343.695 7  26039182.516
                  26039192.914          39.600                          43.500
 137018582.371 5                 102319072.680 6  26073783.891
                  26073795.383          33.300                          36.400
 127673827.343 7                  95340883.450 8  24295520.125
                  24295529.371          45.700                          48.600
 127948821.957 7                  95546235.108 8  24347850.742
                  24347859.230          45.000                          48.400
 25  4 15  0  0 20.0000000  0 21R10G09R18G27G02G04R16G16G26R07R08R19
                                R09G07G08E26E13E04E19E21E23
 122243111.543 5                                  22932482.781    22932481.223
                                        31.000
 121617402.586 5  94766787.79245  90818158.066 7  23143018.445
  23143029.891    23143032.582          35.900          31.300          44.800
 112332054.567 6  87369291.907 6                  21043545.547    21043543.973
  21043553.836                          40.900          41.800
 106411562.176 7  82918185.62348  79463260.117 8  20249457.680
  20249467.906    20249467.848          46.600          50.100          52.500
 118580396.988 6  92400314.15044                  22565085.070
  22565093.434                          39.900          27.300
 122933987.692 5  95792748.08943  91801397.393 7  23393576.414
  23393589.246    23393594.711          33.700          19.600          42.800
 110145060.592 7  85668427.693 7                  20619383.289    20619382.879
  20619391.805                          44.900          44.500
 113282665.609 6  88272219.61045                  21556963.391
  21556971.711                          41.400          30.900
 122443414.383 6  95410459.47143  91435019.909 7  23300182.125
  23300197.184    23300196.789          36.900          21.300          43.400
 127104533.538 5  98859080.787 5                  23744207.820    23744205.355
  23744217.844                          30.900          32.000
 126651997.356 5  98507188.434 5                  23651384.906    23651381.691
  23651390.652                          32.200          33.100
 103761911.006 5  80703574.742 7                  19397150.445    19397148.996
  19397156.074                          35.100          44.000
 106300396.924 7  82678108.389 7                  19906647.828    19906647.727
  19906653.758                          45.000          46.400
 120512004.130 6  93905515.91645                  22932674.984
  22932684.004                          39.500          35.700
 106005627.378 7  82601857.77748  79160110.276 8  20172198.523
  20172208.707    20172208.715          45.600          48.800          52.300
 133565589.640 7                  99740594.358 7  25416681.789
                  25416691.352          42.900                          44.800
 131252059.119 7                  98012964.166 7  24976429.922
                  24976441.402          43.400                          46.200
 136837637.355 6                 102183969.376 7  26039342.078
                  26039352.320          39.700                          43.300
 137021326.035 5                 102321121.527 6  26074306.008
                  26074317.441          33.300                          36.500
 127674573.490 7                  95341440.644 8  24295662.180
                  24295671.480          45.500                          48.500
 127947720.469 7                  95545412.586 8  24347641.148
                  24347649.617          45.000                          48.600
 25  4 15  0  0 21.0000000  0 21R10G09R18G27G02G04R16G16G26R07R08R19
                                R09G07G08E26E13E04E19E21E23
 122239865.412 5                                  22931872.758    22931872.445
                                        31.100
 121619246.152 5  94768224.33445  90819534.723 7  23143368.742
  23143380.559    23143383.488          35.400          30.600          44.700
 112335078.202 6  87371643.624 6                  21044112.055    21044110.934
  21044120.371                          40.900          41.800
 106413051.334 7  82919346.00048  79464372.149 8  20249740.945
  20249751.289    20249751.184          46.400          50.200          52.700
 118577107.056 6  92397750.57344                  22564458.383
  22564467.391                          40.200          27.500
 122936896.372 5  95795014.56343  91803569.458 7  23394129.992
  23394142.840    23394147.887          33.500          20.400          42.400
 110146598.829 7  85669624.101 7                  20619670.594    20619670.863
  20619679.777                          44.600          44.800
 113284540.149 6  88273680.29145                  21557319.414
  21557328.516                          41.400          30.800
 122445911.908 6  95412405.57243  91436884.918 7  23300657.547
  23300672.379    23300672.070          37.000          22.200          43.600
 127107528.933 5  98861410.534 5                  23744767.211    23744765.109
  23744777.309                          30.800          32.300
 126652822.285 5  98507830.024 5                  23651537.219    23651535.375
  23651544.852                          32.100          33.400
 103761602.930 5  80703335.117 7                  19397092.039    19397091.402
  19397098.520                          35.100          44.100
 106298614.883 7  82676722.360 7                  19906313.813    19906313.699
  19906320.016                          45.300          46.700
 120509140.353 6  93903284.39045                  22932130.273
  22932139.156                          39.700          34.800
 106004634.131 7  82601083.82048  79159368.594 8  20172009.469
  20172019.672    20172019.711          45.700          48.900          52.200
 133562963.388 7                  99738633.198 7  25416182.234
                  25416191.641          43.100                          44.900
 131251823.271 7                  98012788.045 7  24976385.055
                  24976396.602          43.100                          46.600
 136838475.622 6                 102184595.348 7  26039501.500
                  26039512.051          39.800                          43.300
 137024069.793 5                 102323170.415 6  26074828.359
                  26074839.535          33.400                          36.800
 127675319.732 7                  95341997.894 8  24295804.203
                  24295813.328          45.700                          49.000
 127946619.042 7                  95544590.081 8  24347431.508
                  24347439.969          44.900                          48.300
 25  4 15  0  0 22.0000000  0 21R10G09R18G27G02G04R16G16G26R07R08R19
                                R09G07G08E26E13E04E19E21E23
 122236619.344 5                                  22931264.617    22931263.785
                                        30.800
 121621090.146 5  94769661.20945  90820911.763 7  23143719.313
  23143731.551    23143734.359          34.800          31.200          45.000
 112338102.460 6  87373995.839 6                  21044677.609    21044676.746
  21044686.871                          41.000          41.800
 106414541.002 7  82920506.78548  79465484.562 8  20250024.828
  20250034.750    20250034.758          46.000          50.200          52.500
 118573817.470 6  92395187.26244                  22563832.352
  22563841.406                          39.600          27.100
 122939805.231 5  95797281.20843  91805741.679 7  23394683.625
  23394696.445    23394701.477          34.100          20.900          42.700
 110148137.567 7  85670820.903 7                  20619959.547    20619958.875
  20619967.797                          45.000          44.700
 113286414.958 6  88275141.18345                  21557676.281
  21557685.195                          41.600          31.200
 122448409.610 6  95414351.85343  91438750.094 7  23301132.703
  23301147.695    23301147.238          37.500          22.200          43.400
 127110524.544 5  98863740.498 5                  23745325.125    23745324.426
  23745336.758                          31.100          32.900
 126653647.974 5  98508472.238 5                  23651689.969    23651689.645
  23651699.227                          32.200          33.300
 103761295.854 5  80703096.268 7                  19397036.594    19397033.684
  19397041.133                          34.600          44.000
 106296833.226 7  82675336.641 7                  19905980.133    19905979.785
  19905986.309                          45.400          46.600
 120506276.918 6  93901053.14945                  22931585.414
  22931594.172                          39.500          35.000
 106003641.467 7  82600310.31648  79158627.291 8  20171820.461
  20171830.801    20171830.840          46.000          49.000          52.000
 133560337.422 7                  99736672.248 7  25415682.398
                  25415691.875          43.300                          44.800
 131251587.971 7                  98012612.324 7  24976340.445
                  24976351.801          42.900                          46.300
 136839314.373 6                 102185221.685 7  26039661.133
                  26039671.566          39.500                          43.200
 137026813.605 5                 102325219.430 6  26075350.656
                  26075361.773          33.200                          37.000
 127676066.123 7                  95342555.265 8  24295946.172
                  24295955.441          45.700                          48.800
 127945517.710 7                  95543767.672 8  24347221.891
                  24347230.398          44.900                          48.300
 25  4 15  0  0 23.0000000  0 21R10G09R18G27G02G04R16G16G26R07R08R19
                                R09G07G08E26E13E04E19E21E23
 122233373.177 5                                  22930655.539    22930654.754
                                        31.000
 121622934.638 5  94771098.47445  90822289.115 7  23144070.922
  23144082.684    23144085.504          34.500          31.500          45.000
 112341127.356 6  87376348.523 7                  21045245.273    21045243.809
  21045253.648                          41.200          42.000
 106416031.129 7  82921667.92148  79466597.319 8  20250307.898
  20250318.434    20250318.297          45.900          50.300          52.700
 118570528.171 6  92392624.17744                  22563206.758
  22563215.445                          39.600          27.100
 122942714.316 5  95799548.04243  91807914.035 7  23395236.984
  23395250.223    23395254.996          33.300          21.500          42.600
 110149676.752 7  85672018.041 7                  20620247.344    20620246.707
  20620255.879                          45.000          44.300
 113288289.987 6  88276602.23345                  21558032.891
  21558042.023                          41.600          30.900
 122450907.532 6  95416298.27943  91440615.403 7  23301607.914
  23301623.008    23301622.641          37.700          22.300          43.700
 127113520.525 5  98866070.705 5                  23745885.266    23745883.734
  23745896.344                          32.100          32.800
 126654474.424 5  98509115.016 5                  23651845.680    23651843.820
  23651853.516                          31.300          33.200
 103760989.703 5  80702858.150 7                  19396977.922    19396976.855
  19396983.922                          34.300          44.500
 106295051.905 7  82673951.157 7                  19905647.234    19905646.594
  19905652.813                          45.500          46.800
 120503413.732 6  93898822.09145                  22931040.219
  22931049.273                          39.700          35.500
 106002649.286 7  82599537.19048  79157886.394 8  20171631.805
  20171642.047    20171641.953          45.800          49.100          52.100
 133557711.696 7                  99734711.492 7  25415182.477
                  25415192.137          43.000                          44.900
 131251353.191 7                  98012436.997 7  24976295.586
                  24976307.160          43.200                          46.500
 136840153.545 6                 102185848.346 7  26039820.891
                  26039831.352          40.000                          43.200
 137029557.572 5                 102327268.467 6  26075872.961
                  26075883.773          33.300                          36.300
 127676812.625 7                  95343112.725 8  24296088.297
                  24296097.414          46.000                          48.800
 127944416.485 7                  95542945.318 8  24347012.242
                  24347020.828          45.100                          48.300
 25  4 15  0  0 24.0000000  0 21R10G09R18G27G02G04R16G16G26R07R08R19
                                R09G07G08E26E13E04E19E21E23
 122230127.023 5                                  22930047.133    22930046.031
                                        30.700
 121624779.460 5  94772535.99845  90823666.746 7  23144421.664
  23144433.801    23144436.547          35.000          31.500          45.200
 112344152.799 6  87378701.638 7                  21045812.469    21045810.367
  21045820.309                          40.900          42.600
 106417521.641 7  82922829.35848  79467710.364 8  20250591.828
  20250602.121    20250601.883          45.700          50.300          52.700
 118567239.114 6  92390061.27344                  22562580.719
  22562589.500                          39.900          26.700
 122945623.516 5  95801814.97243  91810086.482 7  23395791.273
  23395803.805    23395808.512          33.000          21.100          42.400
 110151216.325 7  85673215.481 7                  20620535.313    20620534.930
  20620543.984                          45.000          44.400
 113290165.156 7  88278063.39245                  21558390.344
  21558398.805                          42.200          30.700
 122453405.491 6  95418244.72443  91442480.748 7  23302082.930
  23302098.313    23302098.039          37.300          21.700          43.800
 127116516.667 5  98868401.013 5                  23746444.250    23746444.293
  23746456.102                          31.800          32.400
 126655301.531 5  98509758.311 5                  23652000.906    23651997.836
  23652008.160                          31.400          33.400
 103760684.392 5  80702620.717 7                  19396921.227    19396919.477
  19396926.855                          34.900          44.500
 106293270.860 7  82672565.905 7                  19905312.898    19905312.961
  19905319.195                          45.200          47.100
 120500550.748 6  93896591.19745                  22930495.070
  22930504.473                          39.200          35.600
 106001657.552 7  82598764.41248  79157145.810 8  20171443.141
  20171453.301    20171453.328          46.200          49.000          52.000
 133555086.157 7                  99732750.869 7  25414682.969
                  25414692.535          43.300                          44.900
 131251118.863 7                  98012262.015 7  24976251.148
                  24976262.402          43.400                          46.500
 136840993.099 6                 102186475.286 7  26039980.523
                  26039990.938          39.700                          43.900
 137032301.550 5                 102329317.509 6  26076394.891
                  26076405.793          33.300                          36.400
 127677559.198 7                  95343670.210 8  24296230.453
                  24296239.641          45.700                          49.100
 127943315.264 7                  95542122.974 8  24346802.961
                  24346811.227          45.300                          48.000
 25  4 15  0  0 25.0000000  0 21R10G09R18G27G02G04R16G16G26R07R08R19
                                R09G07G08E26E13E04E19E21E23
 122226880.686 5                                  22929438.227    22929437.426
                                        31.000
 121626624.733 5  94773973.86245  90825044.696 7  23144773.000
  23144784.996    23144787.668          34.600          30.900          44.900
 112347178.881 6  87381055.239 7                  21046379.570    21046377.551
  21046387.195                          40.800          42.300
 106419012.650 7  82923991.18148  79468823.784 8  20250875.953
  20250885.715    20250885.684          45.900          50.300          52.800
 118563950.359 6  92387498.60344                  22561954.797
  22561963.762                          39.400          26.900
 122948532.879 5  95804081.98143  91812259.054 7  23396344.367
  23396357.605    23396362.188          33.100          20.100          42.400
 110152756.360 7  85674413.282 7                  20620823.469    20620823.148
  20620832.316                          44.600          44.400
 113292040.548 6  88279524.73545                  21558747.250
  21558755.785                          41.600          30.600
 122455903.629 6  95420191.31243  91444346.252 7  23302557.984
  23302573.664    23302573.402          37.100          22.500          43.400
 127119513.098 5  98870731.571 5                  23747004.133    23747004.406
  23747015.789                          31.900          32.800
 126656129.399 5  98510402.214 5                  23652155.414    23652152.316
  23652162.941                          31.300          34.400
 103760380.064 5  80702384.028 7                  19396863.922    19396862.422
  19396869.840                          34.400          44.400
 106291490.186 7  82671180.934 7                  19904980.406    19904979.469
  19904985.668                          45.300          46.800
 120497688.065 6  93894360.53845                  22929950.148
  22929959.570                          38.800          35.100
 106000666.378 7  82597992.07248  79156405.644 8  20171254.063
  20171264.742    20171264.688          46.000          49.000          52.200
 133552460.904 7                  99730790.445 7  25414183.352
                  25414192.914          42.800                          44.900
 131250885.043 7                  98012087.419 7  24976206.625
                  24976217.992          43.600                          46.800
 136841833.120 6                 102187102.565 7  26040140.109
                  26040151.082          39.700                          43.700
 137035045.653 5                 102331366.647 6  26076917.000
                  26076928.262          33.800                          36.500
 127678305.905 7                  95344227.820 8  24296372.563
                  24296381.691          45.600                          48.800
 127942214.176 7                  95541300.722 8  24346593.258
                  24346601.777          45.500                          48.000
 25  4 15  0  0 26.0000000  0 21R10G09R18G27G02G04R16G16G26R07R08R19
                                R09G07G08E26E13E04E19E21E23
 122223634.454 5                                  22928828.898    22928828.176
                                        30.900
 121628470.449 5  94775412.08045  90826422.946 7  23145124.336
  23145136.379    23145138.773          34.700          31.800          44.900
 112350205.510 6  87383409.316 7                  21046947.219    21046943.945
  21046954.246                          40.800          42.200
 106420504.087 7  82925153.34148  79469937.516 8  20251159.523
  20251169.535    20251169.520          46.300          50.400          52.500
 118560661.890 6  92384936.16544                  22561328.969
  22561337.910                          39.700          26.700
 122951442.441 5  95806349.17043  91814431.740 7  23396897.563
  23396911.137    23396916.023          33.600          19.900          42.300
 110154296.778 7  85675611.388 7                  20621111.898    20621111.785
  20621120.648                          44.700          44.500
 113293916.148 6  88280986.24445                  21559103.992
  21559112.715                          41.700          31.900
 122458401.921 6  95422138.04243  91446211.853 7  23303034.586
  23303049.246    23303048.824          37.000          22.000          43.300
 127122509.817 5  98873062.354 5                  23747565.188    23747564.098
  23747575.633                          31.500          32.600
 126656957.907 5  98511046.640 5                  23652309.836    23652307.168
  23652317.867                          30.900          34.200
 103760076.628 5  80702147.993 7                  19396806.508    19396805.875
  19396813.164                          34.700          44.400
 106289709.829 7  82669796.213 7                  19904646.609    19904645.996
  19904652.137                          45.300          46.600
 120494825.620 6  93892130.06345                  22929405.992
  22929414.914                          38.800          35.000
 105999675.684 7  82597220.10148  79155665.846 8  20171065.758
  20171076.258    20171076.117          46.000          49.100          52.100
 133549835.857 7                  99728830.177 7  25413684.031
                  25413693.324          43.100                          45.000
 131250651.719 7                  98011913.194 7  24976162.219
                  24976173.555          43.300                          46.800
 136842673.534 6                 102187730.148 7  26040300.305
                  26040310.852          39.500                          43.200
 137037789.723 5                 102333415.844 6  26077439.766
                  26077450.402          33.800                          36.400
 127679052.689 7                  95344785.478 8  24296514.570
                  24296523.848          45.700                          48.700
 127941113.089 7                  95540478.503 8  24346383.813
                  24346392.324          45.000                          48.500
 25  4 15  0  0 27.0000000  0 21R10G09R18G27G02G04R16G16G26R07R08R19
                                R09G07G08E26E13E04E19E21E23
 122220388.165 5                                  22928220.281    22928219.363
                                        30.600
 121630316.541 5  94776850.58545  90827801.548 7  23145475.898
  23145487.758    23145490.191          34.600          32.000          44.800
 112353232.818 6  87385763.859 6                  21047513.398    21047511.262
  21047521.285                          40.800          41.900
 106421996.000 7  82926315.86648  79471051.590 8  20251443.508
  20251453.391    20251453.418          46.200          50.300          52.600
 118557373.707 6  92382373.95444                  22560703.539
  22560712.262                          39.900          27.700
 122954352.129 5  95808616.47443  91816604.563 7  23397452.039
  23397464.770    23397469.555          33.400          19.600          42.600
 110155837.689 7  85676809.862 7                  20621401.328    20621400.340
  20621409.043                          44.900          44.800
 113295791.962 6  88282447.91645                  21559460.766
  21559469.676                          41.800          30.500
 122460900.370 6  95424084.89543  91448077.555 7  23303509.664
  23303524.828    23303524.379          37.200          22.800          43.500
 127125506.861 5  98875393.373 5                  23748125.945    23748124.070
  23748135.555                          31.600          32.600
 126657787.234 5  98511691.644 5                  23652464.047    23652462.043
  23652472.906                          31.400          34.800
 103759774.142 5  80701912.763 7                  19396749.969    19396749.316
  19396756.656                          34.800          44.300
 106287929.800 7  82668411.744 7                  19904313.305    19904312.629
  19904318.910                          45.000          46.600
 120491963.464 6  93889899.82145                  22928861.328
  22928870.289                          39.100          35.000
 105998685.492 7  82596448.53048  79154926.423 8  20170877.320
  20170887.758    20170887.668          46.000          49.000          52.200
 133547211.089 7                  99726870.110 7  25413184.469
                  25413193.867          42.600                          45.000
 131250418.902 7                  98011739.324 7  24976117.813
                  24976129.262          43.300                          46.700
 136843514.399 6                 102188358.056 7  26040460.188
                  26040470.887          39.600                          43.200
 137040534.023 5                 102335465.110 6  26077961.891
                  26077972.297          33.600                          36.400
 127679799.598 7                  95345343.246 8  24296656.703
                  24296665.902          45.800                          48.400
 127940012.134 7                  95539656.356 8  24346174.219
                  24346182.770          45.100                          48.500
 25  4 15  0  0 28.0000000  0 21R10G09R18G27G02G04R16G16G26R07R08R19
                                R09G07G08E26E13E04E19E21E23
 122217141.831 5                                  22927611.648    22927610.480
                                        31.000
 121632163.030 5  94778289.39845  90829180.430 7  23145826.078
  23145839.215    23145841.430          34.300          31.600          44.700
 112356260.701 6  87388118.884 7                  21048080.875    21048078.910
  21048088.488                          40.800          42.000
 106423488.341 7  82927478.72548  79472166.012 8  20251727.133
  20251737.477    20251737.305          46.000          50.300          52.800
 118554085.817 6  92379811.95544                  22560077.422
  22560086.324                          39.900          27.000
 122957261.993 5  95810883.87843  91818777.500 7  23398005.313
  23398018.418    23398023.266          33.300          20.600          42.800
 110157379.032 7  85678008.685 7                  20621689.875    20621688.672
  20621697.574                          44.600          44.400
 113297667.977 6  88283909.75045                  21559818.125
  21559826.758                          41.800          30.700
 122463398.930 6  95426031.80943  91449943.375 7  23303984.820
  23304000.168    23303999.789          37.200          22.000          43.900
 127128504.156 5  98877724.593 5                  23748685.492    23748684.078
  23748695.512                          31.400          32.500
 126658617.267 5  98512337.243 5                  23652618.789    23652616.570
  23652628.043                          31.000          35.000
 103759472.642 5  80701678.195 7                  19396693.219    19396692.598
  19396700.309                          34.900          44.400
 106286150.055 7  82667027.503 7                  19903979.695    19903979.281
  19903985.574                          45.100          46.800
 120489101.537 6  93887669.74545                  22928316.844
  22928325.578                          39.200          35.100
 105997695.806 7  82595677.34448  79154187.365 8  20170689.633
  20170699.309    20170699.316          46.300          49.000          52.300
 133544586.504 7                  99724910.210 7  25412684.875
                  25412694.305          42.400                          45.500
 131250186.592 7                  98011565.842 7  24976073.516
                  24976085.086          43.200                          46.900
 136844355.716 6                 102188986.313 7  26040620.281
                  26040631.082          39.800                          43.600
 137043278.331 5                 102337514.417 6  26078483.828
                  26078494.395          34.100                          36.500
 127680546.604 7                  95345901.076 8  24296799.000
                  24296808.117          45.600                          48.500
 127938911.202 7                  95538834.245 8  24345964.805
                  24345973.203          45.300                          48.300
 25  4 15  0  0 29.0000000  0 21R10G09R18G27G02G04R16G16G26R07R08R19
                                R09G07G08E26E13E04E19E21E23
 122213895.447 5                                  22927002.336    22927001.590
                                        30.900
 121634009.947 5  94779728.54345  90830559.605 7  23146178.398
  23146190.691    23146192.965          34.500          31.200          45.000
 112359289.135 6  87390474.346 7                  21048647.586    21048646.273
  21048655.887                          41.100          42.500
 106424981.102 7  82928641.91548  79473280.736 8  20252011.227
  20252021.465    20252021.398          46.000          50.200          53.000
 118550798.155 6  92377250.13044                  22559452.211
  22559460.582                          40.300          27.700
 122960171.962 5  95813151.38343  91820950.526 7  23398559.336
  23398572.344    23398576.883          33.700          19.900          42.700
 110158920.772 7  85679207.816 7                  20621977.773    20621977.176
  20621986.031                          44.100          44.400
 113299544.156 6  88285371.71345                  21560175.313
  21560183.750                          41.900          30.200
 122465897.638 6  95427978.85543  91451809.296 7  23304460.602
  23304475.523    23304475.367          37.100          22.200          43.900
 127131501.688 5  98880056.031 5                  23749246.398    23749244.281
  23749255.621                          31.400          33.100
 126659448.017 5  98512983.370 5                  23652774.711    23652771.336
  23652783.219                          31.600          34.200
 103759171.927 5  80701444.342 7                  19396638.797    19396636.094
  19396644.051                          34.900          44.400
 106284370.627 7  82665643.503 7                  19903646.328    19903646.031
  19903652.402                          45.400          47.000
 120486239.860 6  93885439.86545                  22927772.258
  22927780.957                          39.600          35.600
 105996706.598 7  82594906.53448  79153448.674 8  20170500.742
  20170511.160    20170511.051          45.900          49.100          52.100
 133541962.172 7                  99722950.469 7  25412185.398
                  25412194.902          42.400                          45.200
 131249954.745 7                  98011392.718 7  24976029.602
                  24976040.973          43.000                          46.700
 136845197.393 6                 102189614.828 7  26040780.750
                  26040791.418          40.000                          43.600
 137046022.669 5                 102339563.774 6  26079006.125
                  26079016.813          34.100                          36.100
 127681293.706 7                  95346458.957 8  24296940.961
                  24296950.273          45.700                          48.700
 127937810.336 7                  95538012.156 8  24345755.063
                  24345763.820          45.300                          48.600
 25  4 15  0  0 30.0000000  0 21R10G09R18G27G02G04R16G16G26R07R08R19
                                R09G07G08E26E13E04E19E21E23
 122210649.042 5                                  22926393.703    22926392.176
                                        30.600
 121635857.268 5  94781167.99945  90831939.095 7  23146529.453
  23146542.324    23146544.457          34.300          30.700          44.900
 112362318.153 6  87392830.250 6                  21049214.797    21049213.848
  21049223.391                          41.400          41.900
 106426474.309 7  82929805.45848  79474395.784 8  20252295.414
  20252305.613    20252305.664          46.100          50.100          52.500
 118547510.806 6  92374688.56644                  22558826.945
  22558835.059                          39.900          26.800
 122963082.072 5  95815418.98043  91823123.690 7  23399113.172
  23399126.000    23399130.934          33.400          20.600          43.000
 110160462.960 7  85680407.279 7                  20622266.102    20622266.105
  20622274.746                          44.200          43.500
 113301420.562 6  88286833.83445                  21560531.945
  21560540.906                          41.800          30.200
 122468396.524 6  95429926.02843  91453675.317 7  23304936.250
  23304951.039    23304950.824          37.300          22.500          43.900
 127134499.513 5  98882387.681 5                  23749805.852    23749804.031
  23749815.723                          31.400          32.600
 126660279.471 5  98513630.041 5                  23652929.242    23652926.543
  23652938.516                          31.800          34.600
 103758872.214 5  80701211.216 7                  19396582.055    19396580.270
  19396588.016                          34.600          43.500
 106282591.531 7  82664259.762 7                  19903313.047    19903312.984
  19903319.191                          45.000          46.100
 120483378.442 6  93883210.19145                  22927227.789
  22927236.535                          39.900          34.700
 105995717.877 7  82594136.10948  79152710.353 8  20170312.680
  20170322.949    20170322.949          46.000          48.700          52.300
 133539338.045 7                  99720990.898 7  25411685.961
                  25411695.453          42.300                          44.700
 131249723.409 7                  98011219.957 7  24975985.781
                  24975996.984          42.800                          46.500
 136846039.502 6                 102190243.681 7  26040941.125
                  26040951.523          40.100                          43.700
 137048767.082 5                 102341613.159 5  26079528.313
                  26079538.879          34.400                          35.800
 127682040.908 7                  95347016.925 8  24297083.102
                  24297092.527          46.300                          48.800
 127936709.548 7                  95537190.139 8  24345545.742
                  24345554.527          45.600                          48.000
 25  4 15  0  0 31.0000000  0 21R10G09R18G27G02G04R16G16G26R07R08R19
                                R09G07G08E26E13E04E19E21E23
 122207402.622 5                                  22925783.195    22925782.797
                                        30.400
 121637705.045 5  94782607.82645  90833318.909 7  23146881.367
  23146894.078    23146895.859          34.800          31.200          44.900
 112365347.813 6  87395186.637 7                  21049783.445    21049781.516
  21049791.059                          41.400          42.100
 106427967.993 7  82930969.36448  79475511.207 8  20252579.859
  20252589.824    20252589.789          46.100          50.500          52.600
 118544223.746 6  92372127.22244                  22558201.266
  22558209.652                          40.100          26.800
 122965992.414 5  95817686.77443  91825296.987 7  23399666.641
  23399679.805    23399684.676          33.700          19.900          42.900
 110162005.589 7  85681607.113 7                  20622555.266    20622554.566
  20622563.656                          44.500          44.000
 113303297.175 7  88288296.12645                  21560889.531
  21560897.953                          42.000          30.500
 122470895.541 6  95431873.31043  91455541.475 7  23305411.719
  23305426.418    23305426.633          37.300          22.600          43.400
 127137497.655 5  98884719.540 5                  23750365.109    23750364.219
  23750375.766                          31.700          32.400
 126661111.657 5  98514277.276 5                  23653085.836    23653082.270
  23653094.109                          30.900          34.500
 103758573.395 5  80700978.870 7                  19396527.039    19396524.602
  19396532.031                          34.200          43.600
 106280812.780 7  82662876.278 7                  19902980.086    19902979.770
  19902986.047                          44.900          45.900
 120480517.301 6  93880980.73045                  22926683.250
  22926692.195                          39.600          35.100
 105994729.683 7  82593366.08948  79151972.429 8  20170124.633
  20170134.898    20170134.895          46.300          49.100          52.500
 133536714.169 6                  99719031.522 7  25411186.781
                  25411196.113          41.900                          44.700
 131249492.588 7                  98011047.594 7  24975941.578
                  24975952.906          42.800                          46.800
 136846882.059 6                 102190872.872 7  26041101.359
                  26041111.852          40.000                          43.300
 137051511.655 5                 102343662.671 5  26080051.336
                  26080061.430          34.300                          35.800
 127682788.218 7                  95347574.992 8  24297225.289
                  24297234.652          46.400                          48.600
 127935608.851 7                  95536368.186 8  24345336.164
                  24345344.887          45.600                          48.200
 25  4 15  0  0 32.0000000  0 21R10G09R18G27G02G04R16G16G26R07R08R19
                                R09G07G08E26E13E04E19E21E23
 122204156.150 5                                  22925176.016    22925173.625
                                        31.000
 121639553.191 5  94784047.94045  90834699.022 7  23147232.727
  23147245.777    23147247.598          34.700          31.200          44.800
 112368378.088 6  87397543.515 7                  21050351.305    21050349.125
  21050358.754                          41.300          42.100
 106429462.115 7  82932133.61148  79476626.950 8  20252864.047
  20252874.203    20252874.098          46.100          50.300          52.600
 118540936.985 6  92369566.11444                  22557575.969
  22557584.285                          40.400          27.000
 122968902.896 5  95819954.68643  91827470.397 7  23400220.281
  23400233.695    23400238.375          33.600          19.000          42.700
 110163548.640 7  85682807.252 7                  20622844.570    20622843.691
  20622852.379                          44.400          43.800
 113305173.964 6  88289758.56045                  21561246.672
  21561254.918                          41.900          31.300
 122473394.682 6  95433820.69043  91457407.707 7  23305887.078
  23305901.938    23305902.309          37.400          22.600          43.600
 127140496.031 5  98887051.586 5                  23750926.531    23750924.188
  23750935.797                          32.000          32.700
 126661944.545 5  98514925.111 5                  23653238.563    23653237.793
  23653249.645                          31.000          33.800
 103758275.522 5  80700747.157 7                  19396470.102    19396469.121
  19396476.359                          34.600          43.800
 106279034.306 7  82661493.032 7                  19902647.586    19902646.445
  19902653.027                          44.900          46.000
 120477656.417 6  93878751.46545                  22926138.367
  22926147.727                          39.400          35.700
 105993741.995 7  82592596.46548  79151234.855 8  20169936.172
  20169947.051    20169946.879          45.900          49.100          52.300
 133534090.555 7                  99717072.324 7  25410687.438
                  25410696.824          42.000                          44.600
 131249262.230 7                  98010875.589 7  24975898.109
                  24975909.047          42.900                          46.800
 136847725.015 6                 102191502.362 7  26041261.672
                  26041272.391          39.700                          43.600
 137054256.250 5                 102345712.236 5  26080573.352
                  26080583.305          33.300                          35.600
 127683535.624 7                  95348133.133 8  24297367.547
                  24297376.918          46.500                          48.300
 127934508.188 7                  95535546.272 8  24345126.609
                  24345135.523          45.100                          48.400
 25  4 15  0  0 33.0000000  0 21R10G09R18G27G02G04R16G16G26R07R08R19
                                R09G07G08E26E13E04E19E21E23
 122200909.660 5                                  22924566.680    22924565.352
                                        31.000
 121641401.750 5  94785488.37545  90836079.440 7  23147584.430
  23147597.535    23147599.297          34.900          31.500          44.900
 112371408.943 6  87399900.852 7                  21050918.484    21050917.203
  21050926.512                          41.100          42.500
 106430956.667 7  82933298.20248  79477743.007 8  20253148.102
  20253158.617    20253158.543          46.200          50.300          52.500
 118537650.450 6  92367005.17044                  22556950.742
  22556958.785                          40.400          28.100
 122971813.531 5  95822222.71443  91829643.884 7  23400774.180
  23400787.602    23400792.363          33.700          19.300          42.500
 110165092.098 7  85684007.708 7                  20623133.656    20623132.844
  20623141.430                          44.300          44.500
 113307050.976 6  88291221.16445                  21561603.500
  21561612.223                          41.900          30.200
 122475893.978 6  95435768.21043  91459274.059 7  23306363.109
  23306377.508    23306377.859          37.000          22.300          43.500
 127143494.587 5  98889383.839 5                  23751486.336    23751484.168
  23751496.051                          31.500          33.500
 126662778.138 5  98515573.436 5                  23653397.117    23653392.879
  23653405.238                          31.200          34.200
 103757978.579 5  80700516.182 7                  19396414.250    19396413.813
  19396420.965                          34.800          44.300
 106277256.175 7  82660110.032 7                  19902314.617    19902313.480
  19902319.996                          44.900          46.400
 120474795.794 6  93876522.41145                  22925593.961
  22925603.387                          39.000          35.000
 105992754.772 7  82591827.20448  79150497.654 8  20169748.820
  20169759.305    20169759.051          46.300          49.100          52.200
 133531467.123 7                  99715113.288 7  25410188.430
                  25410197.594          42.100                          44.400
 131249032.374 7                  98010703.930 7  24975854.242
                  24975865.348          42.600                          46.800
 136848568.412 6                 102192132.143 7  26041422.227
                  26041432.777          39.600                          43.600
 137057000.904 5                 102347761.824 6  26081094.953
                  26081105.621          34.100                          36.000
 127684283.146 7                  95348691.324 8  24297509.953
                  24297519.168          46.400                          48.800
 127933407.587 7                  95534724.401 8  24344917.305
                  24344926.141          45.000                          48.200
 25  4 15  0  0 34.0000000  0 21R10G09R18G27G02G04R16G16G26R07R08R19
                                R09G07G08E26E13E04E19E21E23
 122197663.196 5                                  22923959.188    22923956.406
                                        31.100
 121643250.787 5  94786929.16945  90837460.192 7  23147937.320
  23147949.469    23147951.137          34.600          31.700          44.600
 112374440.411 6  87402258.653 7                  21051486.414    21051485.066
  21051494.457                          40.900          42.500
 106432451.677 7  82934463.14248  79478859.412 8  20253432.695
  20253443.004    20253443.039          46.700          50.300          52.700
 118534364.258 6  92364444.51144                  22556324.547
  22556333.449                          40.400          27.400
 122974724.293 5  95824490.83143  91831817.538 7  23401328.156
  23401341.496    23401346.105          33.700          19.300          42.800
 110166636.023 7  85685208.530 7                  20623422.602    20623421.703
  20623430.430                          44.300          44.400
 113308928.197 6  88292683.93045                  21561960.516
  21561969.406                          41.700          31.200
 122478393.442 6  95437715.82243  91461140.518 7  23306838.406
  23306853.133    23306853.664          36.600          23.200          43.200
 127146493.576 5  98891716.348 5                  23752045.422    23752044.543
  23752056.277                          31.600          33.200
 126663612.528 5  98516222.397 5                  23653551.297    23653548.063
  23653561.086                          31.600          33.700
 103757682.557 5  80700285.958 7                  19396360.547    19396358.063
  19396365.688                          34.600          44.500
 106275478.378 7  82658727.299 7                  19901982.156    19901980.816
  19901987.023                          45.100          46.300
 120471935.396 6  93874293.53445                  22925049.781
  22925059.199                          38.700          34.800
 105991768.077 7  82591058.35348  79149760.834 8  20169561.156
  20169571.383    20169571.301          46.200          49.200          52.500
 133528843.970 6                  99713154.416 7  25409688.859
                  25409698.309          41.700                          44.700
 131248803.057 7                  98010532.688 7  24975810.617
                  24975821.672          42.200                          46.700
 136849412.247 6                 102192762.276 7  26041582.633
                  26041593.430          39.700                          43.800
 137059745.735 5                 102349811.487 5  26081617.242
                  26081628.031          34.400                          35.400
 127685030.788 7                  95349249.624 8  24297652.328
                  24297661.520          46.200                          49.000
 127932307.094 7                  95533902.598 8  24344708.000
                  24344716.703          45.200                          48.400
 25  4 15  0  0 35.0000000  0 21R10G09R18G27G02G04R16G16G26R07R08R19
                                R09G07G08E26E13E04E19E21E23
 122194416.646 5                                  22923349.961    22923347.316
                                        31.400
 121645100.127 5  94788370.21445  90838841.224 7  23148288.641
  23148301.359    23148303.051          35.300          31.900          44.500
 112377472.399 6  87404616.879 7                  21052053.430    21052053.285
  21052062.441                          40.900          42.400
 106433947.138 7  82935628.43948  79479976.140 8  20253717.734
  20253727.691    20253727.645          46.500          50.500          53.000
 118531078.314 6  92361884.03344                  22555699.516
  22555707.988                          40.300          27.300
 122977635.223 5  95826759.08943  91833991.289 7  23401882.188
  23401895.523    23401899.895          34.300          20.100          43.100
 110168180.338 7  85686409.667 7                  20623711.805    20623710.965
  20623719.480                          44.400          44.300
 113310805.577 6  88294146.82745                  21562317.938
  21562326.801                          41.700          31.000
 122480893.029 6  95439663.54243  91463007.083 7  23307313.969
  23307328.996    23307329.176          36.400          22.300          43.200
 127149492.691 5  98894048.996 5                  23752606.039    23752604.570
  23752616.582                          30.800          32.400
 126664447.597 5  98516871.906 5                  23653706.922    23653704.156
  23653716.949                          31.900          34.600
 103757387.445 5  80700056.421 7                  19396304.820    19396303.066
  19396310.508                          34.900          44.200
 106273700.891 7  82657344.806 7                  19901648.406    19901648.004
  19901654.188                          45.000          46.300
 120469075.245 6  93872064.85145                  22924505.273
  22924514.961                          39.000          35.300
 105990781.855 7  82590289.86248  79149024.385 8  20169373.211
  20169383.777    20169383.547          46.300          49.100          52.100
 133526221.021 6                  99711195.720 7  25409189.797
                  25409199.297          41.900                          44.800
 131248574.191 7                  98010361.794 7  24975766.898
                  24975778.063          42.300                          46.600
 136850256.474 6                 102193392.708 7  26041743.367
                  26041753.898          40.000                          44.000
 137062490.527 5                 102351861.165 5  26082139.617
                  26082150.535          34.000                          35.300
 127685778.498 7                  95349807.975 8  24297794.391
                  24297803.688          46.100                          48.900
 127931206.635 7                  95533080.829 8  24344498.805
                  24344507.355          45.100                          48.000
 25  4 15  0  0 36.0000000  0 21R10G09R18G27G02G04R16G16G26R07R08R19
                                R09G07G08E26E13E04E19E21E23
 122191170.078 5                                  22922741.227    22922738.180
                                        31.000
 121646950.015 5  94789811.69245  90840222.585 7  23148640.547
  23148653.215    23148655.188          34.200          31.700          44.100
 112380505.038 6  87406975.588 7                  21052622.297    21052621.449
  21052630.500                          40.500          42.200
 106435443.029 7  82936794.06548  79481093.209 8  20254001.984
  20254012.293    20254012.254          47.000          50.400          52.900
 118527792.664 6  92359323.79244                  22555074.586
  22555082.680                          40.700          27.900
 122980546.349 5  95829027.50143  91836165.164 7  23402436.359
  23402449.395    23402453.883          33.700          20.100          42.700
 110169725.098 7  85687611.138 7                  20624000.602    20624000.387
  20624008.652                          44.700          44.800
 113312683.188 6  88295609.90245                  21562674.711
  21562684.125                          41.700          30.900
 122483392.741 6  95441611.36543  91464873.763 7  23307789.555
  23307804.910    23307804.809          36.400          22.900          43.300
 127152492.154 5  98896381.923 5                  23753165.406    23753164.246
  23753176.746                          30.600          33.300
 126665283.404 5  98517521.938 5                  23653860.211    23653860.027
  23653873.027                          30.800          33.800
 103757093.274 5  80699827.621 7                  19396249.508    19396248.152
  19396255.461                          35.100          44.300
 106271923.728 7  82655962.580 7                  19901315.414    19901315.344
  19901321.391                          45.200          46.600
 120466215.393 6  93869836.39245                  22923961.656
  22923970.566                          39.500          35.000
 105989796.149 7  82589521.78548  79148288.308 8  20169186.188
  20169196.262    20169196.027          46.000          49.200          52.300
 133523598.299 6                  99709237.229 7  25408690.867
                  25408700.141          41.900                          45.200
 131248345.833 7                  98010191.275 7  24975723.648
                  24975734.648          42.600                          46.900
 136851101.141 6                 102194023.462 7  26041903.859
                  26041914.754          39.800                          43.600
 137065235.474 5                 102353910.955 5  26082662.047
                  26082672.934          34.200                          35.500
 127686526.338 7                  95350366.414 8  24297937.008
                  24297945.891          46.100                          48.600
 127930106.265 7                  95532259.127 8  24344289.227
                  24344297.906          45.200                          48.100
 25  4 15  0  0 37.0000000  0 21R10G09R18G27G02G04R16G16G26R07R08R19
                                R09G07G08E26E13E04E19E21E23
 122187923.465 5                                  22922132.313    22922129.398
                                        31.700
 121648800.190 5  94791253.37745  90841604.229 7  23148993.000
  23149005.109    23149007.203          34.700          31.500          44.600
 112383538.270 6  87409334.764 7                  21053190.383    21053189.676
  21053198.840                          41.000          42.200
 106436939.369 7  82937960.04548  79482210.603 8  20254286.813
  20254297.039    20254296.992          46.900          50.400          52.900
 118524507.264 6  92356763.74144                  22554449.148
  22554457.512                          40.200          27.200
 122983457.627 5  95831296.02943  91838339.132 7  23402990.688
  23403003.270    23403007.813          33.400          20.400          42.500
 110171270.277 7  85688812.942 7                  20624290.297    20624289.551
  20624297.934                          45.100          44.900
 113314560.962 6  88297073.10045                  21563032.102
  21563041.379                          41.300          30.700
 122485892.628 6  95443559.30743  91466740.540 7  23308265.750
  23308280.402    23308280.707          36.400          23.000          43.400
 127155491.922 5  98898715.078 5                  23753723.953    23753724.156
  23753737.195                          30.600          32.600
 126666119.869 5  98518172.573 5                  23654015.102    23654016.480
  23654029.133                          31.200          33.800
 103756799.988 5  80699599.522 7                  19396193.641    19396192.738
  19396200.543                          35.000          44.200
 106270146.911 7  82654580.605 7                  19900983.664    19900982.406
  19900988.688                          45.200          46.500
 120463355.813 6  93867608.14145                  22923417.406
  22923426.402                          39.500          35.400
 105988810.940 7  82588754.09348  79147552.588 8  20168998.570
  20169008.746    20169008.461          46.000          49.100          52.300
 133520975.856 7                  99707278.876 7  25408191.727
                  25408201.191          42.300                          45.300
 131248117.981 7                  98010021.119 7  24975680.055
                  24975691.348          43.100                          46.900
 136851946.217 6                 102194654.522 7  26042064.961
                  26042075.430          39.200                          43.900
 137067980.428 5                 102355960.774 5  26083184.133
                  26083194.992          34.100                          35.300
 127687274.233 7                  95350924.924 8  24298079.414
                  24298088.313          45.600                          48.900
 127929005.954 7                  95531437.458 8  24344079.820
                  24344088.559          45.400                          48.300
 25  4 15  0  0 38.0000000  0 21R10G09R18G27G02G04R16G16G26R07R08R19
                                R09G07G08E26E13E04E19E21E23
 122184676.881 5                                  22921524.273    22921520.613
                                        31.700
 121650650.852 5  94792695.45145  90842986.212 7  23149344.773
  23149357.246    23149359.203          34.600          31.400          44.800
 112386572.127 6  87411694.440 7                  21053758.516    21053757.895
  21053767.102                          41.400          42.100
 106438436.186 7  82939126.39748  79483328.347 8  20254572.094
  20254581.910    20254581.891          46.900          50.500          52.700
 118521222.220 6  92354203.96944                  22553824.391
  22553832.379                          40.100          27.400
 122986369.020 5  95833564.65743  91840513.271 7  23403545.242
  23403557.379    23403561.895          33.400          19.900          42.300
 110172815.956 7  85690015.126 7                  20624580.117    20624579.215
  20624587.152                          45.100          44.400
 113316439.029 6  88298536.52845                  21563389.563
  21563398.809                          41.800          31.400
 122488392.662 6  95445507.39043  91468607.449 7  23308741.773
  23308756.191    23308756.270          37.000          23.200          43.300
 127158491.962 5  98901048.349 5                  23754284.000    23754284.414
  23754297.637                          30.700          32.800
 126666957.099 5  98518823.760 5                  23654173.602    23654172.656
  23654185.281                          31.600          33.900
 103756507.708 5  80699372.156 7                  19396139.570    19396138.270
  19396145.922                          35.100          44.000
 106268370.390 7  82653198.883 7                  19900650.516    19900649.898
  19900656.027                          45.600          46.600
 120460496.460 6  93865380.07745                  22922873.508
  22922882.434                          39.700          35.400
 105987826.253 7  82587986.80548  79146817.269 8  20168811.070
  20168821.238    20168821.023          45.800          49.200          52.300
 133518353.646 7                  99705320.739 7  25407692.344
                  25407702.082          42.400                          45.000
 131247890.670 7                  98009851.352 7  24975636.758
                  24975648.000          43.200                          47.000
 136852791.756 6                 102195285.938 7  26042225.977
                  26042236.527          39.100                          43.600
 137070725.507 5                 102358010.665 5  26083706.680
                  26083717.160          34.100                          35.300
 127688022.303 7                  95351483.546 8  24298221.555
                  24298230.699          45.600                          49.100
 127927905.733 7                  95530615.867 7  24343870.461
                  24343879.188          45.200                          47.800
 25  4 15  0  0 39.0000000  0 21R10G09R18G27G02G04R16G16G26R07R08R19
                                R09G07G08E26E13E04E19E21E23
 122181430.242 5                                  22920914.023    22920911.605
                                        31.300
 121652501.917 5  94794137.83445  90844368.494 7  23149697.273
  23149709.617    23149711.379          35.200          31.600          45.000
 112389606.603 6  87414054.563 6                  21054327.648    21054326.516
  21054335.598                          41.700          41.800
 106439933.422 7  82940293.07248  79484446.420 8  20254856.789
  20254866.863    20254866.793          47.000          50.400          52.700
 118517937.424 6  92351644.38644                  22553198.977
  22553207.191                          40.500          26.700
 122989280.659 5  95835833.47043  91842687.505 7  23404098.961
  23404111.520    23404115.770          33.600          19.900          42.200
 110174362.024 7  85691217.645 7                  20624868.500    20624868.305
  20624876.617                          44.500          44.100
 113318317.243 6  88300000.07045                  21563747.063
  21563756.266                          41.700          31.100
 122490892.819 6  95447455.57343  91470474.470 7  23309217.555
  23309231.742    23309231.996          37.400          22.500          43.600
 127161492.166 5  98903381.916 5                  23754844.141    23754845.027
  23754857.969                          30.300          32.500
 126667795.029 5  98519475.492 5                  23654328.250    23654329.031
  23654341.773                          31.300          34.500
 103756216.302 5  80699145.547 7                  19396085.211    19396083.656
  19396091.414                          34.700          44.300
 106266594.239 7  82651817.422 7                  19900318.352    19900317.047
  19900323.535                          45.300          46.800
 120457637.384 6  93863152.22345                  22922329.430
  22922338.281                          39.500          35.000
 105986842.064 7  82587219.90548  79146082.316 8  20168623.422
  20168634.039    20168633.855          45.800          49.100          52.300
 133515731.651 7                  99703362.761 7  25407193.563
                  25407203.238          42.500                          45.000
 131247663.804 7                  98009681.940 7  24975593.602
                  24975604.875          43.000                          46.700
 136853637.702 6                 102195917.659 7  26042386.875
                  26042397.488          39.700                          43.700
 137073470.651 5                 102360060.618 5  26084229.039
                  26084239.813          33.800                          35.100
 127688770.471 7                  95352042.237 8  24298363.805
                  24298372.961          45.900                          49.000
 127926805.576 7                  95529794.319 8  24343661.172
                  24343669.836          45.300                          48.000
 25  4 15  0  0 40.0000000  0 21R10G09R18G27G02G04R16G16G26R07R08R19
                                R09G07G08E26E13E04E19E21E23
 122178183.550 5                                  22920305.523    22920302.539
                                        31.600
 121654353.390 5  94795580.53745  90845751.102 7  23150049.852
  23150061.957    23150063.613          34.900          31.500          44.500
 112392641.629 6  87416415.159 6                  21054896.258    21054895.180
  21054904.152                          41.800          41.400
 106441431.110 7  82941460.10048  79485564.834 8  20255141.828
  20255151.801    20255151.738          46.800          50.100          52.600
 118514652.927 6  92349085.04244                  22552574.148
  22552581.949                          40.200          27.600
 122992192.374 5  95838102.30943  91844861.847 7  23404652.500
  23404665.770    23404669.863          34.100          20.400          42.700
 110175908.550 7  85692420.474 7                  20625158.555    20625157.973
  20625166.043                          44.700          43.600
 113320195.667 6  88301463.77245                  21564105.070
  21564113.629                          41.800          30.500
 122493393.167 6  95449403.89543  91472341.570 7  23309693.422
  23309707.398    23309707.988          37.600          21.100          43.800
 127164492.646 5  98905715.561 5                  23755405.391    23755405.445
  23755418.375                          30.100          32.600
 126668633.721 5  98520127.831 5                  23654485.602    23654486.102
  23654498.434                          31.400          34.600
 103755925.844 5  80698919.640 7                  19396030.250    19396029.527
  19396037.078                          34.700          42.800
 106264818.380 7  82650436.190 7                  19899984.930    19899984.641
  19899990.805                          45.000          45.100
 120454778.562 6  93860924.57545                  22921785.680
  22921794.195                          40.100          34.900
 105985858.344 7  82586453.37348  79145347.732 8  20168436.633
  20168446.875    20168446.598          46.000          48.900          52.200
 133513109.887 7                  99701404.950 7  25406694.508
                  25406704.465          42.600                          45.000
 131247437.444 7                  98009512.913 7  24975550.469
                  24975561.637          43.000                          46.800
 136854484.080 6                 102196549.663 7  26042547.883
                  26042558.426          39.700                          43.900
 137076215.850 5                 102362110.631 5  26084751.563
                  26084762.176          33.400                          35.600
 127689518.716 7                  95352600.993 8  24298506.438
                  24298515.387          45.600                          48.900
 127925705.458 7                  95528972.817 8  24343451.625
                  24343460.598          45.200                          48.200
 25  4 15  0  0 41.0000000  0 21R10G09R18G27G02G04R16G16G26R07R08R19
                                R09G07G08E26E13E04E19E21E23
 122174936.843 5                                  22919693.656    22919694.277
                                        31.700
 121656205.270 5  94797023.55745  90847133.988 7  23150402.383
  23150414.496    23150415.977          34.800          31.900          44.300
 112395677.223 6  87418776.146 6                  21055464.547    21055463.859
  21055472.629                          41.800          41.900
 106442929.232 7  82942627.46748  79486683.548 8  20255426.586
  20255436.848    20255436.859          47.200          50.500          53.000
 118511368.688 6  92346525.88544                  22551948.539
  22551956.934                          39.700          27.300
 122995104.247 5  95840371.29943  91847036.301 7  23405206.781
  23405219.852    23405223.957          34.200          20.100          42.700
 110177455.430 7  85693623.610 7                  20625447.383    20625447.449
  20625455.703                          44.700          44.000
 113322074.276 6  88302927.61945                  21564462.617
  21564471.055                          41.600          31.100
 122495893.599 6  95451352.26643  91474208.795 7  23310167.922
  23310182.938    23310183.641          37.800          21.500          43.900
 127167493.373 4  98908049.489 5                  23755966.016    23755965.762
  23755978.828                          29.700          32.700
 126669473.130 5  98520780.705 5                  23654642.047    23654642.738
  23654655.063                          31.600          34.400
 103755636.257 5  80698694.409 7                  19395976.102    19395975.352
  19395982.984                          35.200          43.300
 106263042.793 7  82649055.182 7                  19899652.078    19899651.992
  19899658.270                          45.200          45.600
 120451919.955 6  93858697.09045                  22921241.453
  22921250.172                          39.900          35.300
 105984875.104 7  82585687.21848  79144613.509 8  20168249.078
  20168259.758    20168259.473          46.000          49.300          52.300
 133510488.347 7                  99699447.304 7  25406195.844
                  25406205.332          42.400                          45.300
 131247211.565 7                  98009344.231 7  24975507.664
                  24975518.820          43.300                          46.500
 136855330.843 6                 102197181.998 7  26042708.828
                  26042719.617          39.900                          44.000
 137078961.164 5                 102364160.624 5  26085274.102
                  26085284.516          33.900                          35.800
 127690267.049 7                  95353159.814 8  24298648.781
                  24298657.871          45.700                          49.000
 127924605.421 7                  95528151.355 8  24343242.469
                  24343251.215          45.400                          48.200
 25  4 15  0  0 42.0000000  0 21R10G09R18G27G02G04R16G16G26R07R08R19
                                R09G07G08E26E13E04E19E21E23
 122171690.213 5                                  22919084.711    22919085.168
                                        31.200
 121658057.625 5  94798466.94545  90848517.241 7  23150755.023
  23150767.105    23150768.742          34.600          31.300          44.500
 112398713.505 7  87421137.708 7                  21056033.516    21056032.555
  21056041.484                          42.100          42.100
 106444427.840 7  82943795.21448  79487802.641 8  20255712.148
  20255722.031    20255722.012          47.200          50.400          53.000
 118508084.798 6  92343966.99844                  22551323.594
  22551332.348                          39.800          27.200
 122998016.349 5  95842640.46243  91849210.922 7  23405761.594
  23405773.914    23405778.086          33.800          19.600          42.900
 110179002.789 7  85694827.122 7                  20625737.328    20625737.000
  20625745.453                          44.300          44.200
 113323953.151 6  88304391.67345                  21564820.266
  21564828.621                          41.500          31.200
 122498394.250 6  95453300.83843  91476076.164 7  23310644.336
  23310658.883    23310659.516          37.600          21.700          44.300
 127170494.438 4  98910383.638 5                  23756527.227    23756526.570
  23756539.316                          29.800          32.500
 126670313.299 5  98521434.110 5                  23654799.281    23654799.559
  23654812.078                          31.900          34.300
 103755347.712 5  80698469.961 7                  19395922.391    19395921.410
  19395929.016                          35.100          43.900
 106261267.590 7  82647674.468 7                  19899320.305    19899319.664
  19899325.848                          45.400          46.100
 120449061.703 6  93856469.88645                  22920697.031
  22920706.117                          39.800          34.700
 105983892.438 7  82584921.50248  79143879.703 8  20168062.297
  20168072.672    20168072.438          45.800          49.100          52.500
 133507867.107 7                  99697489.892 7  25405697.250
                  25405706.664          42.700                          45.400
 131246986.261 7                  98009175.986 7  24975464.438
                  24975475.902          43.400                          46.200
 136856178.108 6                 102197814.694 7  26042870.070
                  26042881.039          39.200                          44.100
 137081706.542 5                 102366210.784 5  26085796.711
                  26085806.879          33.600                          35.700
 127691015.566 7                  95353718.761 8  24298791.258
                  24298800.316          45.600                          48.800
 127923505.508 7                  95527329.989 8  24343032.977
                  24343041.832          45.200                          48.400
 25  4 15  0  0 43.0000000  0 21R10G09R18G27G02G04R16G16G26R07R08R19
                                R09G07G08E26E13E04E19E21E23
 122168443.435 5                                  22918476.281    22918475.785
                                        31.600
 121659910.360 5  94799910.63445  90849900.745 7  23151106.258
  23151119.543    23151120.918          35.300          31.900          44.300
 112401750.314 6  87423499.679 6                  21056602.289    21056601.422
  21056610.449                          41.800          41.900
 106445926.863 7  82944963.28248  79488922.035 8  20255997.359
  20256007.383    20256007.328          46.900          50.400          53.000
 118504801.095 6  92341408.28044                  22550699.008
  22550707.473                          39.700          26.700
 123000928.553 5  95844909.72843  91851385.613 7  23406315.969
  23406327.934    23406332.426          33.700          19.300          42.900
 110180550.554 7  85696030.909 7                  20626027.523    20626026.824
  20626035.117                          44.900          44.100
 113325832.138 6  88305855.81945                  21565177.672
  21565186.141                          41.500          31.700
 122500895.006 6  95455249.48243  91477943.581 7  23311120.484
  23311134.789    23311135.430          37.600          22.600          44.100
 127173495.788 5  98912717.987 5                  23757086.336    23757087.137
  23757099.965                          30.400          31.900
 126671154.061 5  98522088.107 5                  23654956.664    23654956.766
  23654969.164                          31.800          34.600
 103755060.019 5  80698246.222 7                  19395869.344    19395867.879
  19395875.191                          34.900          44.300
 106259492.657 7  82646293.955 7                  19898988.023    19898987.063
  19898993.516                          45.200          46.200
 120446203.649 6  93854242.82945                  22920153.383
  22920162.398                          39.600          35.000
 105982910.225 7  82584156.13848  79143146.226 8  20167875.445
  20167885.922    20167885.609          45.900          49.100          52.600
 133505246.047 7                  99695532.611 7  25405198.500
                  25405207.910          42.400                          45.000
 131246761.373 7                  98009008.065 7  24975421.891
                  24975433.152          43.400                          46.400
 136857025.739 6                 102198447.655 7  26043031.469
                  26043042.191          39.800                          44.200
 137084451.973 5                 102368260.913 5  26086318.766
                  26086329.668          33.200                          35.800
 127691764.121 7                  95354277.746 8  24298933.648
                  24298942.742          45.900                          48.900
 127922405.586 7                  95526508.632 8  24342823.570
                  24342832.520          45.000                          48.400
 25  4 15  0  0 44.0000000  0 21R10G09R18G27G02G04R16G16G26R07R08R19
                                R09G07G08E26E13E04E19E21E23
 122165196.719 5                                  22917866.711    22917866.734
                                        31.600
 121661763.495 5  94801354.63645  90851284.608 7  23151459.742
  23151472.250    23151473.598          35.200          32.300          44.200
 112404787.717 7  87425862.113 6                  21057171.602    21057170.570
  21057179.422                          42.000          41.700
 106447426.355 7  82946131.72348  79490041.785 8  20256283.031
  20256292.816    20256292.605          46.600          50.500          53.000
 118501517.761 6  92338849.82944                  22550073.461
  22550082.660                          39.800          26.400
 123003840.943 5  95847179.10843  91853560.448 7  23406869.750
  23406882.039    23406886.574          33.900          19.300          42.900
 110182098.788 7  85697235.113 7                  20626316.141    20626316.547
  20626324.930                          45.200          44.300
 113327711.393 6  88307320.16845                  21565535.508
  21565543.852                          41.800          31.100
 122503395.925 6  95457198.23643  91479811.149 7  23311596.406
  23311610.711    23311611.313          37.900          22.300          44.500
 127176497.396 5  98915052.586 5                  23757646.484    23757648.121
  23757660.410                          30.400          32.000
 126671995.700 5  98522742.638 5                  23655115.227    23655114.043
  23655126.266                          31.800          33.600
 103754773.291 5  80698023.237 7                  19395814.703    19395814.340
  19395821.563                          34.800          43.900
 106257718.060 7  82644913.738 7                  19898654.977    19898654.988
  19898661.031                          44.900          46.400
 120443345.870 6  93852015.98545                  22919608.797
  22919618.586                          38.900          35.600
 105981928.544 7  82583391.19748  79142413.151 8  20167688.336
  20167699.102    20167698.762          45.900          49.100          52.100
 133502625.267 7                  99693575.524 7  25404699.570
                  25404709.199          42.300                          44.800
 131246537.036 7                  98008840.536 7  24975379.273
                  24975390.313          43.200                          46.500
 136857873.819 6                 102199080.955 7  26043192.898
                  26043203.352          39.900                          44.100
 137087197.506 5                 102370311.172 5  26086841.320
                  26086852.246          33.900                          35.800
 127692512.824 7                  95354836.832 8  24299076.117
                  24299085.246          46.100                          48.900
 127921305.785 7                  95525687.348 8  24342614.367
                  24342623.262          44.800                          48.300
 25  4 15  0  0 45.0000000  0 21R10G09R18G27G02G04R16G16G26R07R08R19
                                R09G07G08E26E13E04E19E21E23
 122161949.971 5                                  22917256.828    22917257.703
                                        31.500
 121663617.075 5  94802798.98445  90852668.775 7  23151812.031
  23151824.809    23151826.254          35.200          31.600          44.300
 112407825.770 6  87428225.024 6                  21057740.711    21057739.641
  21057748.391                          41.700          41.700
 106448926.310 7  82947300.51448  79491161.891 8  20256568.063
  20256578.023    20256578.043          46.400          50.400          53.100
 118498234.715 6  92336291.61844                  22549449.016
  22549457.887                          39.400          26.500
 123006753.558 5  95849448.67743  91855735.419 7  23407424.195
  23407436.270    23407441.051          33.700          19.600          42.800
 110183647.509 7  85698439.661 7                  20626606.156    20626606.027
  20626614.848                          44.900          44.200
 113329590.882 6  88308784.71045                  21565892.477
  21565901.527                          41.800          31.000
 122505897.010 6  95459147.12043  91481678.854 7  23312073.008
  23312086.691    23312087.199          37.900          22.200          44.200
 127179499.349 5  98917387.450 5                  23758209.250    23758209.105
  23758221.207                          30.900          31.400
 126672837.939 5  98523397.765 5                  23655271.914    23655272.121
  23655283.488                          31.600          34.400
 103754487.532 5  80697800.942 7                  19395762.414    19395760.719
  19395768.219                          35.200          44.200
 106255943.889 7  82643533.815 7                  19898323.852    19898322.754
  19898328.926                          45.100          46.300
 120440488.358 6  93849789.35045                  22919065.813
  22919075.094                          39.200          35.200
 105980947.383 7  82582626.65248  79141680.470 8  20167501.922
  20167512.449    20167511.996          46.100          49.100          52.100
 133500004.734 6                  99691618.647 7  25404201.078
                  25404210.656          41.800                          44.600
 131246313.226 7                  98008673.395 7  24975336.836
                  24975347.762          43.500                          46.600
 136858722.351 6                 102199714.615 7  26043354.383
                  26043364.996          40.000                          44.200
 137089943.146 5                 102372361.473 5  26087363.781
                  26087374.816          33.000                          35.800
 127693261.642 7                  95355396.019 8  24299218.547
                  24299227.773          46.100                          48.600
 127920206.079 7                  95524866.136 8  24342405.188
                  24342414.090          44.900                          48.400
 25  4 15  0  0 46.0000000  0 21R10G09R18G27G02G04R16G16G26R07R08R19
                                R09G07G08E26E13E04E19E21E23
 122158703.178 5                                  22916648.711    22916648.531
                                        31.700
 121665471.077 5  94804243.64945  90854053.225 7  23152164.930
  23152177.566    23152179.129          35.200          31.900          44.100
 112410864.412 6  87430588.391 6                  21058309.445    21058308.953
  21058317.711                          41.600          41.600
 106450426.683 7  82948469.63548  79492282.293 8  20256853.563
  20256863.699    20256863.590          46.700          50.500          52.700
 118494951.935 6  92333733.61244                  22548824.445
  22548833.270                          39.100          27.900
 123009666.242 5  95851718.30043  91857910.475 7  23407977.961
  23407990.406    23407995.289          33.800          19.900          42.600
 110185196.646 7  85699644.552 7                  20626896.523    20626896.273
  20626904.879                          45.000          44.200
 113331470.529 6  88310249.37745                  21566250.469
  21566259.156                          41.800          30.500
 122508398.240 6  95461096.15043  91483546.628 7  23312548.828
  23312562.559    23312563.133          37.600          22.300          44.200
 127182501.543 5  98919722.457 5                  23758771.172    23758770.520
  23758781.785                          30.800          32.200
 126673681.013 5  98524053.467 5                  23655428.102    23655429.867
  23655440.895                          31.900          34.000
 103754202.646 5  80697579.392 7                  19395710.578    19395707.719
  19395714.941                          35.100          44.200
 106254170.017 7  82642154.137 7                  19897991.047    19897990.371
  19897996.707                          45.000          46.400
 120437631.130 6  93847562.94345                  22918521.586
  22918531.426                          38.700          35.200
 105979966.690 7  82581862.48148  79140948.129 8  20167315.359
  20167325.617    20167325.387          46.400          49.100          52.300
 133497384.407 6                  99689661.895 7  25403702.344
                  25403712.012          41.900                          45.000
 131246089.843 7                  98008506.603 7  24975294.313
                  24975305.164          43.400                          46.200
 136859571.266 6                 102200348.556 7  26043515.969
                  26043526.500          39.600                          44.100
 137092688.852 5                 102374411.817 5  26087886.539
                  26087897.234          33.900                          35.800
 127694010.525 7                  95355955.252 8  24299361.109
                  24299370.234          46.100                          48.700
 127919106.411 7                  95524044.949 8  24342195.750
                  24342204.750          45.300                          48.300
 25  4 15  0  0 47.0000000  0 21R10G09R18G27G02G04R16G16G26R07R08R19
                                R09G07G08E26E13E04E19E21E23
 122155456.334 5                                  22916039.500    22916039.488
                                        31.400
 121667325.436 5  94805688.60445  90855438.009 7  23152517.734
  23152530.543    23152531.926          35.100          31.500          44.100
 112413903.641 6  87432952.269 7                  21058878.617    21058878.148
  21058887.035                          41.100          42.000
 106451927.523 7  82949639.12448  79493403.048 8  20257139.125
  20257149.277    20257149.141          46.600          50.400          52.500
 118491669.402 6  92331175.80144                  22548199.727
  22548208.605                          39.200          27.600
 123012579.092 5  95853988.05443  91860085.663 7  23408532.578
  23408544.664    23408549.664          33.700          19.300          42.300
 110186746.215 7  85700849.755 7                  20627186.711    20627186.246
  20627194.957                          44.800          44.000
 113333350.397 6  88311714.20845                  21566608.258
  21566616.910                          41.600          31.600
 122510899.569 6  95463045.20543  91485414.519 7  23313024.625
  23313038.488    23313039.297          38.100          22.300          43.800
 127185503.956 5  98922057.680 5                  23759332.336    23759331.582
  23759342.621                          30.900          31.800
 126674524.759 5  98524709.702 5                  23655586.836    23655587.691
  23655598.523                          32.700          34.000
 103753918.739 5  80697358.566 7                  19395655.930    19395654.688
  19395661.805                          35.100          44.300
 106252396.485 7  82640774.719 7                  19897659.188    19897658.320
  19897664.582                          45.200          46.300
 120434774.131 6  93845336.70945                  22917977.742
  22917987.578                          38.900          34.600
 105978986.510 7  82581098.70248  79140216.178 8  20167128.859
  20167139.250    20167138.867          46.000          49.200          52.100
 133494764.339 7                  99687705.353 7  25403203.609
                  25403213.449          42.200                          45.000
 131245867.027 7                  98008340.188 7  24975251.570
                  24975262.688          43.700                          46.200
 136860420.654 6                 102200982.817 7  26043677.508
                  26043688.207          39.800                          43.700
 137095434.619 5                 102376462.219 6  26088409.109
                  26088419.531          33.000                          36.500
 127694759.531 7                  95356514.576 8  24299503.367
                  24299512.867          45.900                          48.600
 127918006.817 7                  95523223.832 8  24341986.617
                  24341995.504          45.300                          48.200
 25  4 15  0  0 48.0000000  0 21R10G09R18G27G02G04R16G16G26R07R08R19
                                R09G07G08E26E13E04E19E21E23
 122152209.498 5                                  22915429.227    22915430.195
                                        31.700
 121669180.272 5  94807133.92645  90856823.087 7  23152872.086
  23152883.426    23152884.949          34.700          31.100          44.500
 112416943.471 6  87435316.591 7                  21059447.797    21059447.758
  21059456.586                          41.100          42.100
 106453428.788 7  82950808.94048  79494524.128 8  20257424.578
  20257434.828    20257434.941          46.600          50.300          52.600
 118488387.191 6  92328618.23444                  22547575.203
  22547583.941                          39.200          27.400
 123015492.120 5  95856257.91843  91862260.971 7  23409087.086
  23409098.977    23409103.945          33.700          19.900          42.300
 110188296.162 7  85702055.274 7                  20627476.984    20627476.336
  20627485.063                          44.600          44.200
 113335230.453 6  88313179.18545                  21566965.828
  21566974.586                          41.700          30.900
 122513401.065 6  95464994.41543  91487282.508 7  23313500.344
  23313514.363    23313515.082          37.700          22.500          43.800
 127188506.623 5  98924393.057 5                  23759894.000    23759892.625
  23759903.398                          30.500          31.600
 126675369.232 5  98525366.546 5                  23655745.313    23655746.066
  23655756.301                          32.100          34.200
 103753635.725 5  80697138.438 7                  19395603.727    19395601.273
  19395609.016                          35.000          44.500
 106250623.229 7  82639395.535 7                  19897326.805    19897326.359
  19897332.613                          45.300          46.600
 120431917.415 6  93843110.70245                  22917434.992
  22917443.871                          39.300          34.900
 105978006.805 7  82580335.29448  79139484.583 8  20166942.227
  20166952.895    20166952.473          45.500          49.100          52.100
 133492144.472 7                  99685748.963 7  25402705.422
                  25402715.168          42.100                          44.700
 131245644.657 7                  98008174.145 7  24975209.141
                  24975220.496          43.500                          46.300
 136861270.438 6                 102201617.381 7  26043839.016
                  26043849.805          39.400                          43.700
 137098180.421 5                 102378512.659 6  26088931.320
                  26088942.379          33.900                          36.200
 127695508.624 7                  95357073.971 8  24299646.141
                  24299655.391          45.300                          48.700
 127916907.290 7                  95522402.754 8  24341777.422
                  24341786.316          44.900                          48.000
 25  4 15  0  0 49.0000000  0 21R10G09R18G27G02G04R16G16G26R07R08R19
                                R09G07G08E26E13E04E19E21E23
 122148962.597 5                                  22914821.578    22914821.090
                                        31.900
 121671035.490 5  94808579.54945  90858208.480 7  23153224.383
  23153236.582    23153237.879          35.200          31.000          43.900
 112419983.906 6  87437681.353 7                  21060018.375    21060017.121
  21060026.219                          40.900          42.300
 106454930.520 7  82951979.12148  79495645.550 8  20257710.461
  20257720.695    20257720.645          46.600          50.500          52.500
 118485105.263 6  92326060.90144                  22546950.672
  22546959.465                          39.000          27.100
 123018405.287 5  95858527.91943  91864436.414 7  23409641.609
  23409653.316    23409658.348          33.900          19.000          42.500
 110189846.564 7  85703261.128 7                  20627767.063    20627766.680
  20627775.250                          44.600          44.400
 113337110.720 6  88314644.31845                  21567323.430
  21567332.512                          41.800          30.900
 122515902.771 6  95466943.79643  91489150.634 7  23313976.305
  23313990.398    23313991.195          38.000          22.500          44.100
 127191509.490 5  98926728.700 5                  23760455.914    23760453.957
  23760464.336                          31.000          32.200
 126676214.429 5  98526023.930 5                  23655903.305    23655903.965
  23655914.191                          32.800          34.300
 103753353.654 5  80696919.034 7                  19395551.234    19395549.082
  19395556.141                          34.900          44.500
 106248850.329 7  82638016.614 7                  19896995.180    19896994.195
  19897000.523                          45.400          46.400
 120429060.967 6  93840884.90145                  22916891.109
  22916900.391                          38.700          35.000
 105977027.630 7  82579572.30248  79138753.380 8  20166756.133
  20166766.395    20166766.133          45.700          49.100          52.100
 133489524.873 7                  99683792.776 7  25402206.703
                  25402216.555          42.400                          44.800
 131245422.820 7                  98008008.480 7  24975167.078
                  24975178.102          43.300                          46.400
 136862120.645 6                 102202252.276 7  26044000.945
                  26044011.559          39.800                          44.000
 137100926.364 5                 102380563.143 6  26089453.750
                  26089464.867          32.900                          36.000
 127696257.852 7                  95357633.448 8  24299788.547
                  24299797.887          45.800                          48.900
 127915807.842 7                  95521581.738 8  24341568.234
                  24341577.199          45.000                          48.200
 25  4 15  0  0 50.0000000  0 21R10G09R18G27G02G04R16G16G26R07R08R19
                                R09G07G08E26E13E04E19E21E23
 122145715.689 5                                  22914213.453    22914211.617
                                        31.200
 121672891.144 5  94810025.51045  90859594.177 7  23153577.523
  23153589.691    23153591.086          34.900          31.000          43.900
 112423024.909 6  87440046.581 7                  21060587.578    21060586.613
  21060595.934                          40.800          42.400
 106456432.707 7  82953149.65448  79496767.296 8  20257996.664
  20258006.512    20258006.496          46.400          50.400          52.700
 118481823.636 6  92323503.78744                  22546326.672
  22546334.902                          39.400          26.100
 123021318.717 5  95860798.12243  91866611.945 7  23410195.586
  23410207.680    23410212.957          33.500          18.600          42.600
 110191397.375 7  85704467.322 7                  20628057.461    20628056.926
  20628065.488                          44.900          44.000
 113338991.194 6  88316109.62445                  21567681.016
  21567690.316                          41.800          30.600
 122518404.528 6  95468893.21643  91491018.872 7  23314452.203
  23314466.465    23314467.098          38.000          21.700          44.100
 127194512.754 5  98929064.532 5                  23761016.820    23761015.203
  23761025.387                          31.200          31.900
 126677060.326 5  98526681.850 5                  23656062.836    23656062.449
  23656072.199                          32.800          33.800
 103753072.503 5  80696700.378 7                  19395498.945    19395496.633
  19395503.691                          35.200          44.100
 106247077.736 7  82636637.919 7                  19896663.336    19896662.223
  19896668.559                          45.400          46.200
 120426204.757 6  93838659.27945                  22916347.250
  22916356.930                          39.000          34.600
 105976048.954 7  82578809.70148  79138022.540 8  20166570.133
  20166580.313    20166579.898          45.900          49.000          52.300
 133486905.486 7                  99681836.752 7  25401708.375
                  25401718.191          42.500                          45.300
 131245201.486 7                  98007843.199 7  24975124.859
                  24975136.125          43.600                          46.400
 136862971.259 6                 102202887.492 7  26044162.727
                  26044173.457          39.100                          43.600
 137103672.333 5                 102382613.748 6  26089976.148
                  26089987.535          32.800                          36.300
 127697007.207 7                  95358193.014 8  24299931.398
                  24299940.523          45.400                          49.300
 127914708.462 7                  95520760.775 8  24341359.203
                  24341367.988          45.400                          48.100
 25  4 15  0  0 51.0000000  0 21R10G09R18G27G02G04R16G16G26R07R08R19
                                R09G07G08E26E13E04E19E21E23
 122142468.799 5                                  22913602.406    22913602.906
                                        31.500
 121674747.214 5  94811471.79245  90860980.212 7  23153930.734
  23153942.883    23153944.234          35.100          31.400          44.200
 112426066.555 6  87442412.299 7                  21061157.070    21061156.813
  21061165.746                          40.900          42.400
 106457935.341 7  82954320.53848  79497889.406 8  20258282.539
  20258292.543    20258292.445          45.800          50.500          52.500
 118478542.325 6  92320946.92144                  22545702.117
  22545710.551                          39.000          26.600
 123024232.182 5  95863068.35543  91868787.617 7  23410749.484
  23410762.117    23410767.148          33.300          19.600          42.500
 110192948.698 7  85705673.909 7                  20628348.609    20628347.520
  20628355.941                          44.700          43.600
 113340871.889 6  88317575.08745                  21568039.563
  21568048.137                          41.900          30.800
 122520906.552 6  95470842.85243  91492887.220 7  23314928.609
  23314942.660    23314943.359          37.200          21.800          43.800
 127197516.207 5  98931400.597 5                  23761577.414    23761576.680
  23761586.664                          31.400          32.000
 126677906.974 5  98527340.361 5                  23656220.992    23656220.965
  23656230.266                          32.600          33.300
 103752792.321 5  80696482.474 7                  19395446.258    19395444.266
  19395451.363                          35.300          43.700
 106245305.452 7  82635259.475 7                  19896331.039    19896330.430
  19896336.699                          44.800          46.500
 120423348.856 6  93836433.89745                  22915804.359
  22915813.316                          38.900          35.000
 105975070.796 7  82578047.50148  79137292.114 8  20166383.828
  20166393.973    20166393.781          46.100          49.000          52.100
 133484286.404 7                  99679880.933 7  25401210.070
                  25401219.926          42.700                          45.100
 131244980.671 7                  98007678.294 7  24975082.992
                  24975094.164          43.100                          46.600
 136863822.372 6                 102203523.048 7  26044324.859
                  26044335.266          38.900                          43.600
 137106418.425 5                 102384664.444 5  26090499.195
                  26090510.145          33.200                          35.600
 127697756.651 7                  95358752.678 8  24300073.938
                  24300083.133          45.600                          49.500
 127913609.180 7                  95519939.881 7  24341149.883
                  24341158.730          45.200                          47.800
 25  4 15  0  0 52.0000000  0 21R10G09R18G27G02G04R16G16G26R07R08R19
                                R09G07G08E26E13E04E19E21E23
 122139221.767 5                                  22912994.328    22912993.906
                                        32.100
 121676603.697 5  94812918.39845  90862366.541 7  23154283.344
  23154296.281    23154297.551          34.800          32.200          44.400
 112429108.779 6  87444778.486 7                  21061728.203    21061726.648
  21061735.789                          41.600          42.100
 106459438.402 7  82955491.74948  79499011.816 8  20258568.539
  20258578.523    20258578.555          46.300          50.500          52.700
 118475261.271 6  92318390.26744                  22545077.180
  22545086.145                          38.800          26.500
 123027145.881 5  95865338.76143  91870963.405 7  23411303.977
  23411316.574    23411321.684          33.000          18.600          42.700
 110194500.442 7  85706880.818 7                  20628638.617    20628637.867
  20628646.438                          45.000          43.800
 113342752.777 7  88319040.71645                  21568397.398
  21568406.121                          42.000          30.400
 122523408.630 6  95472792.51243  91494755.638 7  23315404.727
  23315418.953    23315419.465          37.600          22.200          43.700
 127200520.054 5  98933736.860 5                  23762138.492    23762138.102
  23762147.906                          31.500          31.900
 126678754.358 5  98527999.420 5                  23656379.664    23656379.125
  23656388.574                          33.100          33.600
 103752513.036 5  80696265.217 7                  19395393.070    19395391.742
  19395399.094                          35.300          43.700
 106243533.447 7  82633881.257 7                  19895998.977    19895998.668
  19896004.852                          44.900          46.700
 120420493.176 6  93834208.69345                  22915260.922
  22915269.930                          39.400          35.400
 105974093.104 7  82577285.65948  79136562.019 8  20166197.102
  20166207.910    20166207.648          46.300          49.100          52.200
 133481667.508 7                  99677925.280 7  25400711.773
                  25400721.520          42.600                          45.000
 131244760.301 7                  98007513.745 7  24975040.953
                  24975052.223          42.900                          46.700
 136864673.850 6                 102204158.888 7  26044486.414
                  26044497.359          38.900                          43.700
 137109164.554 5                 102386715.111 5  26091021.414
                  26091032.789          33.200                          35.900
 127698506.201 7                  95359312.397 8  24300216.664
                  24300225.844          45.600                          49.400
 127912509.931 7                  95519119.022 8  24340940.617
                  24340949.496          44.900                          48.000
 25  4 15  0  0 53.0000000  0 21R10G09R18G27G02G04R16G16G26R07R08R19
                                R09G07G08E26E13E04E19E21E23
 122135974.751 5                                  22912386.258    22912385.016
                                        31.100
 121678460.567 5  94814365.30445  90863753.170 7  23154637.000
  23154649.523    23154650.961          35.400          31.800          44.500
 112432151.620 6  87447145.113 7                  21062297.609    21062296.770
  21062305.762                          41.600          42.600
 106460941.937 7  82956663.34048  79500134.582 8  20258854.578
  20258864.715    20258864.555          46.300          50.500          52.600
 118471980.473 6  92315833.80244                  22544452.938
  22544461.840                          38.600          26.000
 123030059.683 5  95867609.28442  91873139.310 7  23411858.445
  23411871.086    23411876.340          32.900          17.800          42.700
 110196052.631 7  85708088.075 7                  20628929.492    20628928.570
  20628937.086                          45.000          44.200
 113344633.861 6  88320506.49245                  21568755.758
  21568764.117                          41.800          31.000
 122525910.881 6  95474742.31543  91496624.207 7  23315880.398
  23315895.117    23315895.602          37.400          22.300          43.800
 127203524.044 5  98936073.364 5                  23762698.539    23762698.895
  23762709.148                          31.000          32.800
 126679602.481 5  98528659.045 5                  23656539.461    23656537.461
  23656546.988                          32.900          34.200
 103752234.703 5  80696048.744 7                  19395340.742    19395339.723
  19395347.133                          35.300          43.800
 106241761.822 7  82632503.310 7                  19895667.234    19895667.023
  19895673.176                          45.000          46.500
 120417637.767 6  93831983.70845                  22914717.359
  22914726.574                          38.800          34.900
 105973115.947 7  82576524.23648  79135832.318 8  20166011.969
  20166022.074    20166021.746          45.400          49.200          52.100
 133479048.875 7                  99675969.786 7  25400213.281
                  25400223.313          42.300                          45.200
 131244540.465 7                  98007349.585 7  24974998.820
                  24975010.387          43.600                          46.600
 136865525.760 6                 102204795.062 7  26044648.578
                  26044659.563          39.500                          43.600
 137111910.861 5                 102388765.853 6  26091544.375
                  26091555.445          33.900                          36.000
 127699255.845 7                  95359872.205 8  24300359.133
                  24300368.281          45.400                          49.500
 127911410.781 7                  95518298.227 8  24340731.383
                  24340740.363          44.800                          48.300
 25  4 15  0  0 54.0000000  0 21R10G09R18G27G02G04R16G16G26R07R08R19
                                R09G07G08E26E13E04E19E21E23
 122132727.796 5                                  22911776.477    22911776.109
                                        31.700
 121680317.897 5  94815812.57545  90865140.163 7  23154990.719
  23155002.883    23155004.297          34.800          31.800          44.600
 112435195.057 6  87449512.245 7                  21062867.875    21062866.973
  21062875.988                          41.700          42.500
 106462445.928 7  82957835.27848  79501257.703 8  20259140.688
  20259150.820    20259150.848          46.000          50.300          52.600
 118468700.032 6  92313277.61244                  22543828.477
  22543837.727                          38.600          26.400
 123032973.710 5  95869879.95843  91875315.369 7  23412412.281
  23412425.570    23412430.582          32.900          19.000          42.200
 110197605.259 7  85709295.673 7                  20629220.266    20629219.223
  20629227.879                          45.100          44.000
 113346515.192 6  88321972.46545                  21569113.016
  21569122.059                          41.900          30.900
 122528413.318 6  95476692.25143  91498492.914 7  23316357.156
  23316371.281    23316371.918          37.100          21.800          43.500
 127206528.401 5  98938410.039 5                  23763259.750    23763260.238
  23763270.574                          31.500          32.600
 126680451.396 5  98529319.321 5                  23656696.602    23656695.809
  23656705.289                          32.700          33.600
 103751957.234 5  80695832.986 7                  19395289.492    19395287.730
  19395295.297                          35.000          44.000
 106239990.561 7  82631125.662 7                  19895336.516    19895335.207
  19895341.324                          45.200          46.700
 120414782.692 6  93829758.98045                  22914173.570
  22914183.195                          38.600          34.700
 105972139.334 7  82575763.24048  79135103.023 8  20165825.328
  20165836.281    20165835.938          45.400          49.200          52.300
 133476430.486 6                  99674014.515 7  25399715.320
                  25399724.918          41.600                          45.600
 131244321.170 7                  98007185.822 7  24974957.203
                  24974968.594          43.200                          46.300
 136866378.159 6                 102205431.586 7  26044810.883
                  26044821.598          39.300                          43.400
 137114657.225 5                 102390816.782 5  26092066.773
                  26092077.875          33.300                          35.800
 127700005.662 7                  95360432.121 8  24300501.953
                  24300511.105          45.600                          49.100
 127910311.717 7                  95517477.509 8  24340522.141
                  24340531.164          45.300                          48.200
 25  4 15  0  0 55.0000000  0 21R10G09R18G27G02G04R16G16G26R07R08R19
                                R09G07G08E26E13E04E19E21E23
 122129480.687 5                                  22911167.656    22911167.684
                                        32.100
 121682175.585 5  94817260.12445  90866527.394 7  23155343.883
  23155356.344    23155358.004          35.400          30.700          44.500
 112438239.057 6  87451879.781 7                  21063438.586    21063437.012
  21063446.082                          41.900          42.300
 106463950.346 7  82959007.54648  79502381.124 8  20259426.945
  20259437.109    20259437.148          46.200          50.500          52.600
 118465419.831 6  92310721.60344                  22543204.195
  22543213.590                          38.500          26.800
 123035887.830 5  95872150.66843  91877491.486 7  23412966.563
  23412980.133    23412985.090          32.200          18.600          42.200
 110199158.265 7  85710503.549 7                  20629510.711    20629509.863
  20629518.484                          45.300          44.100
 113348396.654 6  88323438.54645                  21569470.992
  21569480.199                          41.800          31.100
 122530915.843 6  95478642.26543  91500361.688 7  23316832.961
  23316847.508    23316848.215          37.100          22.300          43.500
 127209533.023 5  98940746.948 5                  23763820.984    23763821.355
  23763832.090                          31.000          32.600
 126681300.928 5  98529980.065 5                  23656857.117    23656854.285
  23656864.055                          32.700          34.300
 103751680.767 5  80695617.910 7                  19395237.422    19395236.422
  19395243.563                          35.000          44.400
 106238219.556 7  82629748.231 7                  19895004.008    19895003.973
  19895009.746                          44.700          47.100
 120411927.817 6  93827534.40145                  22913631.016
  22913639.824                          39.000          35.000
 105971163.156 7  82575002.58848  79134374.066 8  20165639.961
  20165650.574    20165650.121          45.400          49.200          52.300
 133473812.324 6                  99672059.393 7  25399216.906
                  25399226.934          41.600                          45.100
 131244102.302 7                  98007022.381 7  24974915.570
                  24974926.996          43.300                          46.500
 136867230.924 6                 102206068.393 7  26044973.422
                  26044983.691          39.300                          43.200
 137117403.582 5                 102392867.587 6  26092589.156
                  26092600.629          33.200                          36.300
 127700755.522 7                  95360992.079 8  24300644.672
                  24300653.867          45.300                          49.000
 127909212.700 7                  95516656.808 8  24340313.141
                  24340322.043          45.300                          48.000
 25  4 15  0  0 56.0000000  0 21R10G09R18G27G02G04R16G16G26R07R08R19
                                R09G07G08E26E13E04E19E21E23
 122126233.608 5                                  22910558.156    22910558.738
                                        31.900
 121684033.752 5  94818708.04545  90867914.944 7  23155697.750
  23155709.754    23155711.477          35.000          30.300          44.400
 112441283.652 6  87454247.798 7                  21064009.328    21064007.285
  21064016.473                          41.600          42.100
 106465455.182 7  82960180.14748  79503504.862 8  20259713.891
  20259723.508    20259723.461          46.100          50.500          52.500
 118462139.919 6  92308165.84844                  22542579.953
  22542589.473                          38.500          26.900
 123038802.147 5  95874421.57543  91879667.742 7  23413521.953
  23413534.711    23413539.977          32.600          19.300          42.200
 110200711.679 7  85711711.757 7                  20629801.414    20629800.602
  20629809.266                          45.200          44.200
 113350278.331 6  88324904.78945                  21569829.219
  21569838.219                          41.700          31.100
 122533418.554 6  95480592.42243  91502230.562 7  23317309.625
  23317323.773    23317324.352          37.300          22.200          43.200
 127212537.841 5  98943084.050 5                  23764383.148    23764382.574
  23764393.516                          31.400          33.400
 126682151.201 5  98530641.360 5                  23657016.914    23657013.063
  23657022.586                          32.800          34.100
 103751405.159 5  80695403.561 7                  19395185.570    19395184.848
  19395191.984                          34.400          44.200
 106236448.859 7  82628371.016 7                  19894672.258    19894671.926
  19894678.125                          44.700          46.600
 120409073.168 6  93825309.99345                  22913087.445
  22913096.738                          39.000          35.000
 105970187.470 7  82574242.30848  79133645.465 8  20165454.156
  20165464.586    20165464.566          45.800          49.100          52.100
 133471194.388 6                  99670104.428 7  25398718.961
                  25398728.840          41.900                          44.900
 131243883.966 7                  98006859.333 7  24974873.945
                  24974885.438          42.800                          46.400
 136868084.071 6                 102206705.517 7  26045135.922
                  26045146.137          39.600                          43.200
 137120150.068 5                 102394918.520 6  26093111.727
                  26093123.457          33.400                          36.500
 127701505.475 7                  95361552.112 8  24300787.320
                  24300796.535          45.700                          49.000
 127908113.732 7                  95515836.154 8  24340104.203
                  24340112.902          45.600                          48.300
 25  4 15  0  0 57.0000000  0 21R10G09R18G27G02G04R16G16G26R07R08R19
                                R09G07G08E26E13E04E19E21E23
 122122986.514 5                                  22909950.367    22909949.445
                                        32.100
 121685892.324 5  94820156.28045  90869302.835 7  23156051.422
  23156063.352    23156065.188          34.800          30.600          43.800
 112444328.901 6  87456616.321 7                  21064578.836    21064578.152
  21064587.020                          41.500          42.100
 106466960.514 7  82961353.12848  79504628.973 8  20260000.266
  20260010.098    20260009.965          46.300          50.600          52.600
 118458860.301 6  92305610.30844                  22541956.508
  22541965.289                          38.600          26.600
 123041716.589 5  95876692.53343  91881844.120 7  23414075.789
  23414089.320    23414094.648          32.800          19.000          42.400
 110202265.569 7  85712920.345 7                  20630092.375    20630091.652
  20630100.316                          45.300          44.500
 113352160.252 7  88326371.21645                  21570187.594
  21570196.426                          42.000          31.300
 122535921.396 6  95482542.66643  91504099.570 7  23317786.070
  23317800.156    23317800.531          37.600          22.000          43.400
 127215543.017 5  98945421.382 5                  23764944.227    23764944.445
  23764955.051                          30.900          33.500
 126683002.184 5  98531303.247 5                  23657174.180    23657172.090
  23657181.359                          32.800          34.300
 103751130.505 5  80695189.954 7                  19395134.875    19395133.293
  19395140.695                          34.800          44.500
 106234678.547 7  82626994.103 7                  19894340.813    19894340.520
  19894346.598                          45.100          46.900
 120406218.827 6  93823085.84045                  22912544.125
  22912553.430                          39.300          35.200
 105969212.312 7  82573482.44648  79132917.272 8  20165268.797
  20165279.211    20165278.969          45.700          49.100          52.000
 133468576.682 6                  99668149.667 7  25398220.492
                  25398230.789          41.800                          45.500
 131243666.115 7                  98006696.675 7  24974832.594
                  24974843.891          43.000                          46.200
 136868937.734 6                 102207342.970 7  26045298.219
                  26045308.520          39.400                          43.100
 137122896.657 5                 102396969.520 6  26093634.281
                  26093646.246          33.500                          36.200
 127702255.564 7                  95362112.249 8  24300929.859
                  24300939.387          45.500                          48.800
 127907014.859 7                  95515015.562 8  24339894.992
                  24339903.766          45.700                          48.500
 25  4 15  0  0 58.0000000  0 21R10G09R18G27G02G04R16G16G26R07R08R19
                                R09G07G08E26E13E04E19E21E23
 122119739.385 5                                  22909340.867    22909339.648
                                        32.000
 121687751.245 5  94821604.79445  90870691.017 7  23156404.289
  23156416.945    23156418.797          34.800          30.500          43.700
 112447374.712 6  87458985.270 7                  21065150.086    21065148.480
  21065157.656                          41.600          42.400
 106468466.231 7  82962526.41548  79505753.382 8  20260286.055
  20260296.484    20260296.430          46.700          50.500          52.800
 118455580.936 6  92303054.96444                  22541332.297
  22541341.199                          38.600          26.700
 123044631.234 5  95878963.64643  91884020.615 7  23414630.625
  23414643.828    23414649.156          33.000          18.600          42.500
 110203819.916 7  85714129.262 7                  20630383.492    20630382.828
  20630391.406                          45.400          44.500
 113354042.319 7  88327837.75145                  21570545.766
  21570554.527                          42.100          31.200
 122538424.348 6  95484493.01843  91505968.675 7  23318261.766
  23318276.438    23318276.941          38.000          22.300          43.700
 127218548.425 5  98947758.913 5                  23765505.969    23765505.367
  23765516.621                          30.700          33.800
 126683853.846 5  98531965.686 5                  23657331.797    23657331.023
  23657340.461                          32.600          34.100
 103750856.768 5  80694977.058 7                  19395083.609    19395081.750
  19395089.504                          34.600          44.300
 106232908.566 7  82625617.444 7                  19894009.891    19894009.184
  19894015.180                          45.000          46.900
 120403364.710 6  93820861.85245                  22912001.359
  22912010.223                          39.100          35.200
 105968237.641 7  82572722.96948  79132189.429 8  20165083.180
  20165093.895    20165093.512          45.600          49.200          52.100
 133465959.215 6                  99666195.073 7  25397722.422
                  25397732.684          41.900                          45.600
 131243448.783 7                  98006534.365 7  24974791.148
                  24974802.520          43.400                          46.000
 136869791.791 6                 102207980.729 7  26045461.008
                  26045471.215          39.400                          43.300
 137125643.275 5                 102399020.575 6  26094157.344
                  26094168.754          33.300                          36.700
 127703005.757 7                  95362672.449 8  24301072.883
                  24301081.973          45.500                          48.600
 127905916.049 7                  95514195.019 8  24339685.977
                  24339694.637          45.500                          48.600
 25  4 15  0  0 59.0000000  0 21R10G09R18G27G02G04R16G16G26R07R08R19
                                R09G07G08E26E13E04E19E21E23
 122116492.145 5                                  22908732.945    22908730.488
                                        31.700
 121689610.585 5  94823053.63045  90872079.494 7  23156758.883
  23156770.773    23156772.586          34.800          30.500          43.800
 112450421.094 7  87461354.705 7                  21065721.219    21065719.023
  21065728.379                          42.000          42.300
 106469972.442 7  82963700.09048  79506878.150 8  20260573.078
  20260583.211    20260583.145          46.600          50.500          53.000
 118452301.918 6  92300499.87344                  22540708.008
  22540717.332                          38.600          26.700
 123047545.971 5  95881234.89643  91886197.206 7  23415185.656
  23415198.512    23415203.902          33.000          18.300          42.300
 110205374.715 7  85715338.552 7                  20630674.133    20630673.625
  20630682.387                          45.100          44.400
 113355924.634 6  88329304.48745                  21570903.781
  21570912.664                          41.500          31.800
 122540927.519 6  95486443.54743  91507837.890 7  23318738.625
  23318752.730    23318753.172          37.100          22.500          43.900
 127221554.083 5  98950096.691 5                  23766067.859    23766066.984
  23766078.379                          31.000          34.000
 126684706.248 5  98532628.640 5                  23657491.820    23657490.188
  23657499.520                          32.400          33.700
 103750583.982 5  80694764.855 7                  19395033.750    19395030.891
  19395038.527                          34.900          44.400
 106231138.916 7  82624241.056 7                  19893678.516    19893677.902
  19893683.844                          45.100          46.800
 120400510.861 6  93818638.07745                  22911458.039
  22911467.035                          39.200          34.600
 105967263.494 7  82571963.88948  79131461.969 8  20164898.070
  20164908.492    20164908.129          45.300          49.100          52.100
 133463342.006 7                  99664240.657 7  25397224.461
                  25397234.645          42.300                          45.700
 131243231.953 7                  98006372.429 7  24974749.969
                  24974761.469          43.400                          45.900
 136870646.254 6                 102208618.790 7  26045623.078
                  26045633.512          39.400                          43.200
 137128389.933 5                 102401071.676 6  26094680.344
                  26094691.496          34.000                          36.600
 127703756.051 7                  95363232.733 8  24301215.766
                  24301224.789          45.300                          48.800
 127904817.291 7                  95513374.533 8  24339476.820
                  24339485.641          45.500                          48.600
 25  4 15  0  1  0.0000000  0 21R10G09R18G27G02G04R16G16G26R07R08R19
                                R09G07G08E26E13E04E19E21E23
 122113244.995 5                                  22908124.516    22908121.090
                                        31.200
 121691470.478 5  94824502.89145  90873468.335 7  23157112.328
  23157124.652    23157126.605          34.900          30.900          44.000
 112453468.102 6  87463724.591 7                  21066291.648    21066290.215
  21066299.199                          41.700          42.400
 106471479.124 7  82964874.12948  79508003.259 8  20260859.641
  20260869.918    20260869.770          46.800          50.300          52.800
 118449023.185 6  92297945.02844                  22540084.750
  22540093.691                          38.300          25.600
 123050460.923 5  95883506.30343  91888373.964 7  23415740.000
  23415752.984    23415758.426          32.600          18.600          42.100
 110206929.968 7  85716548.190 7                  20630965.070    20630964.828
  20630973.625                          44.900          44.300
 113357807.166 6  88330771.39845                  21571262.414
  21571270.766                          41.600          30.700
 122543430.843 6  95488394.17544  91509707.244 7  23319214.883
  23319229.164    23319229.656          37.300          25.300          43.900
 127224560.052 5  98952434.645 5                  23766628.969    23766628.180
  23766640.195                          30.800          32.900
 126685559.429 5  98533292.222 5                  23657649.953    23657649.063
  23657658.707                          32.700          33.800
 103750312.118 5  80694553.446 7                  19394981.984    19394980.492
  19394987.664                          35.100          44.000
 106229369.623 7  82622864.949 7                  19893346.391    19893346.441
  19893352.441                          44.900          46.900
 120397657.354 6  93816414.56545                  22910914.898
  22910923.941                          39.000          34.900
 105966289.841 7  82571205.20348  79130734.922 8  20164712.672
  20164723.043    20164722.859          45.800          49.000          52.200
 133460725.088 6                  99662286.431 7  25396726.672
                  25396736.656          41.700                          45.400
 131243015.632 7                  98006210.903 7  24974708.609
                  24974720.266          43.200                          46.000
 136871501.189 6                 102209257.227 7  26045785.992
                  26045796.297          39.000                          43.400
 137131136.792 5                 102403122.868 6  26095202.578
                  26095214.176          33.500                          36.000
 127704506.479 7                  95363793.113 8  24301358.391
                  24301367.590          45.500                          49.000
 127903718.656 7                  95512554.127 8  24339267.750
                  24339276.551          45.600                          48.200
 25  4 15  0  1  1.0000000  0 21R10G09R18G27G02G04R16G16G26R07R08R19
                                R09G07G08E26E13E04E19E21E23
 122109997.708 5                                  22907512.594    22907511.645
                                        31.100
 121693330.633 5  94825952.36645  90874857.427 7  23157466.453
  23157478.781    23157480.605          35.000          30.000          43.800
 112456515.672 6  87466094.926 7                  21066861.539    21066860.906
  21066870.070                          41.700          42.600
 106472986.198 7  82966048.47448  79509128.674 8  20261146.359
  20261156.676    20261156.551          46.700          50.500          52.500
 118445744.709 6  92295390.36744                  22539460.203
  22539469.680                          38.800          24.900
 123053376.016 5  95885777.80343  91890550.794 7  23416294.625
  23416307.664    23416313.195          33.400          19.000          42.200
 110208485.598 7  85717758.128 7                  20631256.828    20631255.898
  20631264.727                          44.500          44.200
 113359689.844 6  88332238.41545                  21571620.516
  21571628.957                          41.700          31.400
 122545934.233 6  95490344.88143  91511576.677 7  23319691.359
  23319705.645    23319705.906          37.000          23.300          44.100
 127227566.202 5  98954772.778 5                  23767189.453    23767189.398
  23767201.875                          30.300          34.300
 126686413.271 5  98533956.307 5                  23657808.328    23657808.168
  23657818.195                          32.200          33.800
 103750041.180 5  80694342.704 7                  19394930.727    19394929.438
  19394937.051                          34.700          43.600
 106227600.588 7  82621489.028 7                  19893015.258    19893015.285
  19893021.262                          45.000          46.700
 120394804.037 6  93814191.20845                  22910372.094
  22910381.215                          39.200          35.000
 105965316.698 7  82570446.91248  79130008.200 8  20164527.680
  20164537.941    20164537.660          45.800          49.100          52.000
 133458108.305 6                  99660332.378 7  25396228.586
                  25396238.668          41.700                          45.200
 131242799.751 7                  98006049.700 7  24974667.469
                  24974679.246          43.300                          46.000
 136872356.501 6                 102209895.927 7  26045948.859
                  26045958.867          39.600                          43.200
 137133883.623 5                 102405174.107 5  26095725.281
                  26095736.918          32.900                          35.700
 127705256.976 7                  95364353.552 8  24301501.391
                  24301510.520          45.600                          48.800
 127902620.042 7                  95511733.741 8  24339058.805
                  24339067.457          45.700                          48.100
 25  4 15  0  1  2.0000000  0 21R10G09R18G27G02G04R16G16G26R07R08R19
                                R09G07G08E26E13E04E19E21E23
 122106750.469 5                                  22906903.500    22906902.168
                                        31.600
 121695191.250 5  94827402.20345  90876246.859 7  23157821.359
  23157832.797    23157834.680          35.100          30.400          43.900
 112459563.847 6  87468465.727 7                  21067432.477    21067431.836
  21067441.102                          41.500          42.500
 106474493.740 7  82967223.17448  79510254.438 8  20261433.180
  20261443.469    20261443.484          46.800          50.700          52.600
 118442466.559 6  92292835.96044                  22538837.383
  22538845.832                          38.800          26.000
 123056291.284 5  95888049.40743  91892727.783 7  23416850.367
  23416862.531    23416868.207          33.500          18.600          42.200
 110210041.681 7  85718968.397 7                  20631547.547    20631547.301
  20631556.133                          44.600          44.800
 113361572.769 6  88333705.63245                  21571978.555
  21571987.418                          41.500          31.900
 122548437.842 6  95492295.72943  91513446.221 7  23320167.383
  23320182.027    23320182.320          36.700          22.600          44.400
 127230572.698 5  98957111.110 5                  23767750.109    23767750.773
  23767763.660                          30.500          32.600
 126687267.878 5  98534621.001 5                  23657966.508    23657968.207
  23657977.711                          31.500          33.800
 103749771.141 5  80694132.665 7                  19394880.594    19394879.238
  19394886.484                          34.700          43.900
 106225831.904 7  82620113.397 7                  19892684.508    19892684.000
  19892690.004                          45.100          46.600
 120391950.999 6  93811968.05245                  22909829.555
  22909838.309                          39.000          34.800
 105964344.031 7  82569688.99048  79129281.868 8  20164342.625
  20164352.945    20164352.590          46.000          49.100          52.200
 133455491.813 6                  99658378.510 7  25395730.586
                  25395740.969          41.800                          45.100
 131242584.431 7                  98005888.907 7  24974626.578
                  24974638.223          43.300                          46.200
 136873212.261 6                 102210534.967 7  26046111.758
                  26046121.766          39.600                          43.000
 137136630.604 5                 102407225.370 6  26096247.859
                  26096259.820          33.900                          36.200
 127706007.582 7                  95364914.073 8  24301643.977
                  24301653.203          45.400                          48.800
 127901521.538 7                  95510913.409 8  24338849.641
                  24338858.398          45.500                          48.200
 25  4 15  0  1  3.0000000  0 21R10G09R18G27G02G04R16G16G26R07R08R19
                                R09G07G08E26E13E04E19E21E23
 122103503.164 5                                  22906293.477    22906292.902
                                        31.200
 121697052.264 5  94828852.34645  90877636.577 7  23158174.891
  23158186.965    23158188.914          35.200          31.700          44.300
 112462612.640 6  87470837.010 7                  21068003.977    21068002.984
  21068012.148                          41.700          42.700
 106476001.711 7  82968398.21348  79511380.520 8  20261720.281
  20261730.480    20261730.441          47.300          50.500          52.600
 118439188.652 6  92290281.74744                  22538213.164
  22538221.926                          38.700          25.900
 123059206.662 5  95890321.15243  91894904.835 7  23417405.008
  23417417.203    23417422.750          33.100          19.300          42.100
 110211598.171 7  85720179.006 7                  20631839.242    20631838.648
  20631847.465                          44.700          44.800
 113363455.881 6  88335172.98745                  21572337.484
  21572345.785                          41.400          31.700
 122550941.557 6  95494246.66243  91515315.897 7  23320642.984
  23320658.609    23320658.781          37.100          22.600          44.400
 127233579.413 5  98959449.671 5                  23768312.063    23768312.688
  23768325.328                          30.500          32.400
 126688123.193 5  98535286.250 5                  23658127.766    23658127.684
  23658137.469                          31.500          33.300
 103749502.080 5  80693923.373 7                  19394829.664    19394828.828
  19394836.313                          35.100          44.000
 106224063.549 7  82618738.000 7                  19892352.531    19892352.461
  19892358.891                          44.900          46.900
 120389098.236 6  93809745.12145                  22909286.383
  22909295.363                          38.700          35.100
 105963371.868 7  82568931.46148  79128555.914 8  20164157.031
  20164167.875    20164167.492          46.000          49.100          52.100
 133452875.531 6                  99656424.802 7  25395232.945
                  25395242.961          41.900                          44.900
 131242369.590 7                  98005728.467 7  24974585.547
                  24974597.379          43.400                          46.800
 136874068.428 6                 102211174.311 7  26046274.516
                  26046284.652          39.400                          43.000
 137139377.588 5                 102409276.696 6  26096770.695
                  26096782.387          33.300                          36.400
 127706758.305 7                  95365474.669 8  24301786.906
                  24301796.098          45.800                          48.800
 127900423.079 7                  95510093.133 8  24338640.789
                  24338649.344          45.600                          48.400
 25  4 15  0  1  4.0000000  0 21R10G09R18G27G02G04R16G16G26R07R08R19
                                R09G07G08E26E13E04E19E21E23
 122100255.866 5                                  22905684.938    22905683.930
                                        30.700
 121698913.713 5  94830302.81345  90879026.611 7  23158529.313
  23158541.004    23158543.125          35.000          30.700          44.200
 112465662.030 6  87473208.750 7                  21068575.094    21068574.375
  21068583.531                          41.700          42.400
 106477510.148 7  82969573.62148  79512506.947 8  20262007.219
  20262017.504    20262017.438          47.200          50.500          52.900
 118435911.057 6  92287727.77844                  22537589.523
  22537598.172                          38.600          26.100
 123062122.235 5  95892593.00643  91897082.050 7  23417959.375
  23417972.125    23417977.680          33.400          19.300          42.000
 110213155.106 7  85721389.948 7                  20632131.109    20632130.137
  20632138.977                          44.500          44.800
 113365339.180 6  88336640.48845                  21572695.969
  21572704.137                          41.800          31.700
 122553445.432 6  95496197.72743  91517185.658 7  23321119.813
  23321135.148    23321135.203          37.300          22.200          44.100
 127236586.421 5  98961788.458 5                  23768873.703    23768875.059
  23768887.254                          31.500          33.600
 126688979.237 5  98535952.035 5                  23658287.977    23658287.281
  23658297.137                          31.800          33.400
 103749233.869 5  80693714.767 7                  19394779.156    19394779.059
  19394786.152                          35.200          44.200
 106222295.516 7  82617362.866 7                  19892022.047    19892021.293
  19892027.711                          45.200          46.800
 120386245.690 6  93807522.36245                  22908743.609
  22908752.500                          39.500          34.900
 105962400.201 7  82568174.31648  79127830.319 8  20163972.227
  20163982.887    20163982.586          45.800          49.100          52.100
 133450259.539 7                  99654471.280 7  25394735.023
                  25394745.324          42.300                          45.100
 131242155.247 7                  98005568.412 7  24974544.922
                  24974556.672          43.100                          46.900
 136874925.023 6                 102211813.990 7  26046437.664
                  26046447.656          39.100                          43.100
 137142124.736 5                 102411328.149 6  26097293.508
                  26097305.301          34.000                          36.900
 127707509.150 7                  95366035.355 8  24301929.719
                  24301939.020          45.800                          49.100
 127899324.693 7                  95509272.917 8  24338431.828
                  24338440.410          45.500                          48.200
 25  4 15  0  1  5.0000000  0 21R10G09R18G27G02G04R16G16G26R07R08R19
                                R09G07G08E26E13E04E19E21E23
 122097008.568 5                                  22905074.664    22905074.152
                                        31.300
 121700775.533 5  94831753.58445  90880416.939 7  23158883.148
  23158895.426    23158897.488          35.100          30.800          43.800
 112468711.965 6  87475580.931 7                  21069146.531    21069145.695
  21069154.852                          41.800          42.400
 106479019.012 7  82970749.35648  79513633.694 8  20262294.445
  20262304.723    20262304.598          46.900          50.500          53.000
 118432633.743 6  92285174.03844                  22536966.578
  22536974.602                          38.800          26.200
 123065037.907 5  95894864.94243  91899259.347 7  23418514.242
  23418526.887    23418532.488          33.600          18.300          42.000
 110214712.466 7  85722601.231 7                  20632422.664    20632421.863
  20632430.516                          44.800          44.800
 113367222.702 7  88338108.17245                  21573054.055
  21573062.520                          42.200          32.300
 122555949.411 6  95498148.87843  91519055.525 7  23321596.906
  23321611.809    23321611.652          36.500          22.800          44.000
 127239593.660 5  98964127.438 5                  23769438.180    23769437.102
  23769449.125                          30.300          33.300
 126689835.918 5  98536618.380 5                  23658448.422    23658447.352
  23658457.156                          32.100          33.300
 103748966.614 5  80693506.925 7                  19394730.648    19394728.355
  19394736.246                          35.400          43.800
 106220527.785 7  82615987.972 7                  19891691.164    19891690.363
  19891696.727                          45.100          47.000
 120383393.442 6  93805299.83645                  22908200.570
  22908209.688                          38.600          34.800
 105961429.057 7  82567417.58048  79127105.113 8  20163787.539
  20163798.152    20163797.902          45.900          49.200          52.100
 133447643.732 6                  99652517.924 7  25394237.492
                  25394247.430          41.800                          45.100
 131241941.385 7                  98005408.702 7  24974504.586
                  24974515.859          42.600                          47.000
 136875782.046 6                 102212453.957 7  26046600.844
                  26046610.641          39.400                          43.300
 137144871.840 5                 102413379.553 6  26097815.773
                  26097828.148          33.500                          36.900
 127708260.057 7                  95366596.103 8  24302072.563
                  24302081.871          45.900                          49.100
 127898226.347 7                  95508452.730 8  24338222.648
                  24338231.352          45.600                          48.200
 25  4 15  0  1  6.0000000  0 21R10G09R18G27G02G04R16G16G26R07R08R19
                                R09G07G08E26E13E04E19E21E23
 122093761.179 5                                  22904466.914    22904465.449
                                        31.700
 121702637.797 5  94833204.70645  90881807.577 7  23159238.008
  23159249.805    23159251.816          34.800          31.500          44.100
 112471762.501 7  87477953.557 7                  21069717.727    21069717.078
  21069726.453                          42.000          42.500
 106480528.314 7  82971925.43548  79514760.767 8  20262581.484
  20262591.875    20262591.785          46.700          50.500          53.000
 118429356.700 6  92282620.49044                  22536341.930
  22536350.945                          38.700          25.800
 123067953.753 5  95897137.04843  91901436.767 7  23419069.766
  23419081.863    23419087.512          33.500          18.600          42.000
 110216270.265 7  85723812.849 7                  20632713.305    20632713.414
  20632722.254                          45.000          44.900
 113369106.409 6  88339575.99145                  21573412.469
  21573421.012                          41.900          31.500
 122558453.602 6  95500100.17143  91520925.504 7  23322072.922
  23322088.219    23322088.238          36.300          22.500          44.000
 127242601.119 5  98966466.586 5                  23769998.867    23769999.020
  23770010.934                          31.200          33.400
 126690693.396 5  98537285.304 5                  23658607.320    23658607.371
  23658617.352                          32.200          33.600
 103748700.298 5  80693299.756 7                  19394679.156    19394678.742
  19394686.418                          35.400          43.900
 106218760.391 7  82614613.315 7                  19891359.766    19891359.445
  19891365.863                          45.100          47.100
 120380541.436 6  93803077.49345                  22907658.141
  22907667.043                          39.000          35.100
 105960458.390 7  82566661.22548  79126380.256 8  20163603.016
  20163613.406    20163613.203          45.800          49.300          52.200
 133445028.164 6                  99650564.749 7  25393739.648
                  25393749.734          41.800                          45.300
 131241728.036 7                  98005249.379 7  24974464.109
                  24974475.430          42.900                          47.000
 136876639.478 6                 102213094.231 7  26046764.008
                  26046773.934          39.300                          43.600
 137147619.115 5                 102415431.069 6  26098338.930
                  26098350.867          33.500                          37.000
 127709011.075 7                  95367156.932 8  24302215.367
                  24302224.801          46.100                          49.000
 127897128.102 7                  95507632.606 8  24338013.578
                  24338022.328          45.900                          48.200
 25  4 15  0  1  7.0000000  0 21R10G09R18G27G02G04R16G16G26R07R08R19
                                R09G07G08E26E13E04E19E21E23
 122090513.778 5                                  22903857.305    22903856.414
                                        31.900
 121704500.470 5  94834656.13645  90883198.539 7  23159591.117
  23159604.277    23159606.426          34.400          30.700          44.100
 112474813.637 6  87480326.678 6                  21070289.281    21070288.855
  21070298.012                          41.500          41.900
 106482038.073 7  82973101.86748  79515888.188 8  20262868.875
  20262879.289    20262879.172          47.000          50.300          52.900
 118426079.950 6  92280067.19544                  22535719.188
  22535727.453                          38.800          26.100
 123070869.786 5  95899409.27743  91903614.294 6  23419624.188
  23419636.824    23419642.094          33.900          19.900          41.800
 110217828.468 7  85725024.790 7                  20633005.406    20633005.102
  20633013.836                          45.000          44.900
 113370990.342 7  88341043.99245                  21573771.172
  21573779.449                          42.000          32.100
 122560957.877 6  95502051.55143  91522795.586 7  23322549.703
  23322564.836    23322564.855          36.900          22.300          44.100
 127245608.895 5  98968805.972 5                  23770560.047    23770560.996
  23770572.742                          31.300          33.400
 126691551.566 5  98537952.750 5                  23658766.750    23658767.465
  23658777.648                          32.600          33.800
 103748434.828 5  80693093.305 7                  19394629.555    19394629.383
  19394636.723                          34.700          44.100
 106216993.297 7  82613238.916 7                  19891028.484    19891028.398
  19891034.879                          45.200          47.400
 120377689.687 6  93800855.35945                  22907115.664
  22907124.371                          38.400          35.200
 105959488.230 7  82565905.25048  79125655.790 8  20163418.508
  20163428.801    20163428.543          45.600          49.100          52.300
 133442412.849 6                  99648611.752 7  25393241.984
                  25393251.977          41.800                          45.400
 131241515.178 7                  98005090.437 7  24974423.734
                  24974434.824          43.000                          47.000
 136877497.334 6                 102213734.856 7  26046927.039
                  26046937.059          39.300                          43.100
 137150366.376 5                 102417482.631 6  26098861.688
                  26098873.773          34.200                          36.500
 127709762.204 7                  95367717.836 8  24302358.398
                  24302367.746          46.300                          49.000
 127896029.908 7                  95506812.530 8  24337804.781
                  24337813.340          45.600                          48.300
 25  4 15  0  1  8.0000000  0 21R10G09R18G27G02G04R16G16G26R07R08R19
                                R09G07G08E26E13E04E19E21E23
 122087266.372 5                                  22903249.430    22903246.828
                                        31.400
 121706363.493 5  94836107.85345  90884589.789 7  23159947.188
  23159958.656    23159960.949          34.200          30.400          43.900
 112477865.377 6  87482700.243 6                  21070861.406    21070860.590
  21070869.570                          41.400          41.800
 106483548.252 7  82974278.63048  79517015.911 8  20263156.328
  20263166.629    20263166.508          47.000          50.500          53.000
 118422803.477 6  92277514.10244                  22535094.969
  22535104.188                          38.200          25.200
 123073785.974 5  95901681.62543  91905791.944 7  23420180.117
  23420191.793    23420197.129          33.600          20.100          42.000
 110219387.091 7  85726237.056 7                  20633298.047    20633296.906
  20633305.633                          44.800          45.100
 113372874.464 7  88342512.13345                  21574129.445
  21574138.063                          42.200          31.500
 122563462.305 6  95504003.06543  91524665.766 7  23323026.375
  23323041.469    23323041.344          36.800          23.300          44.000
 127248616.987 5  98971145.541 5                  23771121.031    23771123.621
  23771134.703                          32.200          33.300
 126692410.405 5  98538620.747 5                  23658927.094    23658928.305
  23658938.082                          32.400          33.700
 103748170.306 5  80692887.583 7                  19394581.070    19394579.906
  19394587.402                          34.900          44.700
 106215226.541 7  82611864.781 7                  19890698.398    19890697.590
  19890704.035                          45.000          47.700
 120374838.173 6  93798633.39445                  22906573.117
  22906581.855                          38.600          35.600
 105958518.551 7  82565149.66148  79124931.679 8  20163234.031
  20163244.289    20163244.023          45.500          49.100          52.100
 133439797.771 7                  99646658.922 7  25392744.195
                  25392754.449          42.300                          46.000
 131241302.804 7                  98004931.846 7  24974383.242
                  24974394.477          43.200                          46.900
 136878355.616 6                 102214375.766 7  26047090.531
                  26047100.453          39.400                          43.200
 137153113.754 5                 102419534.247 6  26099384.961
                  26099396.797          34.000                          36.200
 127710513.448 7                  95368278.819 8  24302501.336
                  24302510.754          46.000                          49.000
 127894931.776 7                  95505992.502 8  24337595.688
                  24337604.242          45.700                          48.200
 25  4 15  0  1  9.0000000  0 21R10G09R18G27G02G04R16G16G26R07R08R19
                                R09G07G08E26E13E04E19E21E23
 122084018.989 5                                  22902639.617    22902637.297
                                        31.600
 121708227.079 5  94837559.98645  90885981.397 7  23160301.063
  23160313.359    23160315.543          33.700          30.600          44.300
 112480917.734 6  87485074.278 7                  21071432.586    21071432.297
  21071441.395                          41.500          42.300
 106485058.932 7  82975455.78648  79518144.026 8  20263444.086
  20263454.086    20263454.035          47.100          50.500          53.200
 118419527.361 6  92274961.27744                  22534472.063
  22534480.691                          38.700          26.800
 123076702.331 5  95903954.12743  91907969.742 7  23420734.508
  23420746.738    23420751.984          33.500          19.600          42.300
 110220946.210 7  85727449.688 7                  20633588.875    20633588.906
  20633597.629                          44.700          45.100
 113374758.842 7  88343980.47245                  21574488.000
  21574496.730                          42.500          31.400
 122565966.948 6  95505954.71743  91526536.119 7  23323503.461
  23323518.098    23323518.051          37.500          22.800          44.300
 127251625.252 5  98973485.344 5                  23771686.125    23771685.293
  23771696.848                          31.700          33.300
 126693270.010 5  98539289.356 5                  23659087.523    23659089.266
  23659098.715                          31.700          33.400
 103747906.757 5  80692682.592 7                  19394530.961    19394530.742
  19394538.188                          35.100          44.400
 106213460.190 7  82610490.935 7                  19890367.508    19890366.848
  19890373.254                          45.200          47.600
 120371987.009 6  93796411.71845                  22906030.297
  22906039.195                          38.700          35.200
 105957549.418 7  82564394.49648  79124207.983 8  20163049.523
  20163059.934    20163059.563          45.500          49.100          52.100
 133437182.968 7                  99644706.312 7  25392246.797
                  25392256.988          42.400                          45.800
 131241090.969 7                  98004773.669 7  24974342.781
                  24974354.289          43.500                          46.500
 136879214.375 6                 102215017.044 7  26047254.156
                  26047263.820          39.700                          43.100
 137155861.220 5                 102421585.905 6  26099907.820
                  26099919.414          34.000                          36.500
 127711264.813 7                  95368839.919 8  24302644.391
                  24302653.652          45.900                          48.800
 127893833.787 7                  95505172.562 7  24337386.914
                  24337395.457          45.600                          47.800
 25  4 15  0  1 10.0000000  0 21R10G09R18G27G02G04R16G16G26R07R08R19
                                R09G07G08E26E13E04E19E21E23
 122080771.518 5                                  22902030.852    22902028.566
                                        31.500
 121710090.971 5  94839012.36845  90887373.271 7  23160655.336
  23160668.141    23160670.512          33.800          30.900          44.500
 112483970.659 6  87487448.795 6                  21072004.820    21072004.246
  21072013.301                          41.700          41.700
 106486570.034 7  82976633.27148  79519272.431 8  20263731.195
  20263741.730    20263741.582          47.200          50.500          52.900
 118416251.519 6  92272408.67944                  22533848.391
  22533857.242                          38.800          25.600
 123079618.827 5  95906226.67343  91910147.636 7  23421289.352
  23421301.813    23421306.820          33.500          20.900          42.100
 110222505.690 7  85728662.600 7                  20633881.422    20633880.793
  20633889.680                          44.200          44.900
 113376643.402 7  88345448.96045                  21574846.813
  21574855.238                          42.400          30.800
 122568471.726 6  95507906.48443  91528406.525 7  23323980.180
  23323994.605    23323994.625          37.500          22.200          44.100
 127254633.876 5  98975825.351 5                  23772246.406    23772247.730
  23772258.758                          32.200          33.000
 126694130.424 5  98539958.503 5                  23659248.555    23659250.613
  23659259.422                          32.300          33.200
 103747644.138 5  80692478.313 7                  19394483.648    19394481.488
  19394488.996                          35.000          44.300
 106211694.098 7  82609117.314 7                  19890036.695    19890036.070
  19890042.586                          45.300          47.900
 120369136.089 6  93794190.21945                  22905487.773
  22905496.547                          38.900          35.300
 105956580.772 7  82563639.70848  79123484.636 8  20162865.078
  20162875.496    20162875.266          45.600          49.100          52.300
 133434568.364 7                  99642753.863 7  25391749.406
                  25391759.340          42.600                          45.900
 131240879.632 7                  98004615.836 7  24974302.578
                  24974314.098          43.400                          46.500
 136880073.511 6                 102215658.602 7  26047417.273
                  26047427.199          39.800                          43.200
 137158608.797 5                 102423637.606 6  26100430.563
                  26100442.398          34.300                          36.800
 127712016.286 7                  95369401.078 8  24302787.430
                  24302796.691          45.600                          48.400
 127892735.818 7                  95504352.659 8  24337177.844
                  24337186.555          45.400                          48.000
 25  4 15  0  1 11.0000000  0 21R10G09R18G27G02G04R16G16G26R07R08R19
                                R09G07G08E26E13E04E19E21E23
 122077524.035 5                                  22901421.750    22901419.090
                                        31.200
 121711955.339 5  94840465.12545  90888765.469 7  23161010.680
  23161023.059    23161025.195          33.800          30.400          44.300
 112487024.211 6  87489823.769 6                  21072577.664    21072576.211
  21072585.320                          41.800          41.800
 106488081.576 7  82977811.09148  79520401.181 8  20264019.422
  20264029.250    20264029.125          47.000          50.400          52.500
 118412975.930 6  92269856.27444                  22533225.281
  22533234.059                          39.200          27.000
 123082535.476 5  95908499.40843  91912325.643 6  23421844.234
  23421856.887    23421861.773          33.700          20.100          41.800
 110224065.618 7  85729875.887 7                  20634173.711    20634172.695
  20634181.598                          44.500          44.400
 113378528.139 7  88346917.57845                  21575205.805
  21575213.996                          42.600          31.500
 122570976.555 6  95509858.29743  91530277.053 7  23324456.797
  23324471.336    23324471.301          37.300          22.300          43.900
 127257642.656 5  98978165.523 5                  23772808.781    23772810.484
  23772820.773                          31.800          32.800
 126694991.470 5  98540628.247 5                  23659410.891    23659411.789
  23659420.148                          32.200          33.600
 103747382.438 5  80692274.780 7                  19394434.250    19394432.684
  19394440.059                          35.200          44.200
 106209928.384 7  82607743.976 7                  19889706.219    19889705.301
  19889712.023                          45.000          47.300
 120366285.396 6  93791968.90645                  22904945.531
  22904954.051                          38.900          35.500
 105955612.613 7  82562885.30348  79122761.670 8  20162681.000
  20162691.348    20162691.082          45.300          49.100          52.300
 133431954.006 7                  99640801.591 7  25391251.672
                  25391261.676          42.900                          45.700
 131240668.781 7                  98004458.394 7  24974262.820
                  24974273.902          43.100                          46.800
 136880933.082 6                 102216300.486 7  26047581.133
                  26047590.617          39.700                          43.400
 137161356.376 5                 102425689.422 6  26100953.195
                  26100965.152          33.800                          37.100
 127712767.866 7                  95369962.311 8  24302930.430
                  24302939.746          45.700                          48.800
 127891637.921 7                  95503532.802 8  24336968.852
                  24336977.684          45.300                          48.300
 25  4 15  0  1 12.0000000  0 21R10G09R18G27G02G04R16G16G26R07R08R19
                                R09G07G08E26E13E04E19E21E23
 122074276.599 5                                  22900812.656    22900809.914
                                        31.600
 121713820.106 5  94841918.18945  90890157.998 7  23161365.602
  23161378.039    23161380.070          33.800          30.000          44.400
 112490078.382 6  87492199.230 6                  21073149.609    21073148.473
  21073157.406                          41.600          41.800
 106489593.609 7  82978989.30348  79521530.306 8  20264307.117
  20264317.051    20264316.863          47.100          50.500          52.700
 118409700.692 6  92267304.13844                  22532602.039
  22532610.746                          38.400          26.000
 123085452.310 5  95910772.26343  91914503.813 7  23422399.031
  23422412.059    23422417.148          33.600          19.900          42.000
 110225626.067 7  85731089.557 7                  20634465.539    20634464.965
  20634473.734                          44.900          44.200
 113380413.138 7  88348386.41345                  21575564.070
  21575572.602                          42.600          31.400
 122573481.649 6  95511810.33343  91532147.742 7  23324933.531
  23324948.027    23324948.031          37.700          22.800          43.900
 127260651.736 5  98980505.974 5                  23773370.609    23773372.395
  23773382.840                          31.700          32.600
 126695853.330 5  98541298.562 5                  23659570.648    23659572.852
  23659581.207                          33.200          33.500
 103747121.695 5  80692071.960 7                  19394385.141    19394383.910
  19394391.324                          35.700          44.400
 106208163.016 7  82606370.930 7                  19889375.750    19889374.625
  19889381.316                          45.200          47.300
 120363435.051 6  93789747.85145                  22904403.047
  22904411.754                          38.400          35.400
 105954644.998 7  82562131.31248  79122039.109 8  20162496.797
  20162507.172    20162506.934          45.300          49.100          52.100
 133429339.962 7                  99638849.542 7  25390754.555
                  25390764.469          42.600                          45.700
 131240458.492 7                  98004301.337 7  24974222.461
                  24974233.883          42.800                          46.700
 136881793.113 6                 102216942.716 7  26047745.016
                  26047754.387          40.000                          43.500
 137164104.111 5                 102427741.269 6  26101476.344
                  26101487.984          34.200                          36.600
 127713519.589 7                  95370523.657 8  24303073.555
                  24303082.730          45.900                          48.600
 127890540.138 7                  95502713.032 8  24336759.688
                  24336768.715          45.100                          48.100
 25  4 15  0  1 13.0000000  0 21R10G09R18G27G02G04R16G16G26R07R08R19
                                R09G07G08E26E13E04E19E21E23
 122071029.092 5                                  22900203.188    22900200.496
                                        32.000
 121715685.275 5  94843371.56344  90891550.829 7  23161720.961
  23161732.938    23161735.035          33.400          29.700          44.500
 112493133.124 6  87494575.144 7                  21073720.836    21073720.652
  21073729.613                          41.300          42.200
 106491106.075 7  82980167.84348  79522659.744 8  20264594.875
  20264604.688    20264604.754          47.100          50.500          52.700
 118406425.746 6  92264752.23844                  22531979.234
  22531987.629                          38.600          26.700
 123088369.301 5  95913045.21743  91916682.062 6  23422954.164
  23422967.109    23422971.895          33.800          19.600          41.700
 110227186.931 7  85732303.569 7                  20634757.844    20634757.289
  20634765.867                          44.900          44.600
 113382298.316 7  88349855.38245                  21575922.961
  21575931.391                          42.000          31.300
 122575986.890 6  95513762.46143  91534018.513 7  23325409.867
  23325424.719    23325424.676          37.500          23.900          44.300
 127263661.138 5  98982846.592 5                  23773934.516    23773934.141
  23773945.051                          31.700          33.000
 126696715.881 5  98541969.419 5                  23659733.281    23659734.566
  23659742.238                          33.600          33.600
 103746861.882 5  80691869.944 7                  19394336.000    19394335.332
  19394342.621                          35.400          44.100
 106206397.955 7  82604998.095 7                  19889044.844    19889044.020
  19889050.832                          45.100          47.300
 120360584.909 6  93787526.96845                  22903860.141
  22903869.609                          38.300          35.200
 105953677.893 7  82561377.72948  79121316.922 8  20162313.289
  20162323.141    20162322.801          45.800          49.100          52.200
 133426726.105 7                  99636897.639 7  25390256.836
                  25390267.145          42.900                          45.700
 131240248.658 7                  98004144.661 7  24974182.570
                  24974193.832          42.900                          47.000
 136882653.588 6                 102217585.258 7  26047908.359
                  26047918.090          40.200                          43.400
 137166851.885 5                 102429793.171 6  26101998.953
                  26102011.082          34.200                          36.900
 127714271.397 7                  95371085.074 8  24303216.602
                  24303225.879          45.900                          48.500
 127889442.410 7                  95501893.302 8  24336551.055
                  24336559.676          45.100                          48.200
 25  4 15  0  1 14.0000000  0 21R10G09R18G27G02G04R16G16G26R07R08R19
                                R09G07G08E26E13E04E19E21E23
 122067781.495 5                                  22899593.617    22899591.320
                                        31.000
 121717550.906 5  94844825.28844  90892943.971 7  23162075.258
  23162087.824    23162090.098          34.300          29.600          44.300
 112496188.480 6  87496951.528 7                  21074293.977    21074293.172
  21074302.020                          41.600          42.200
 106492618.974 7  82981346.72448  79523789.496 8  20264882.383
  20264892.672    20264892.535          47.100          50.500          52.800
 118403151.028 6  92262200.51544                  22531356.352
  22531364.438                          38.600          26.500
 123091286.415 5  95915318.28643  91918860.456 6  23423509.313
  23423522.246    23423526.973          33.600          20.100          41.700
 110228748.224 7  85733517.909 7                  20635049.945    20635049.363
  20635058.184                          44.900          44.700
 113384183.692 7  88351324.50645                  21576281.719
  21576290.066                          42.300          31.800
 122578492.257 6  95515714.67643  91535889.381 7  23325886.711
  23325901.402    23325901.637          38.100          22.800          44.200
 127266670.779 5  98985187.474 5                  23774495.789    23774495.598
  23774507.246                          31.400          32.700
 126697579.113 5  98542640.801 5                  23659895.680    23659896.723
  23659903.523                          33.600          33.100
 103746603.012 5  80691668.565 7                  19394287.297    19394286.637
  19394294.352                          35.300          44.400
 106204633.182 7  82603625.504 7                  19888715.023    19888713.688
  19888720.461                          45.100          47.000
 120357735.046 6  93785306.29145                  22903318.492
  22903327.215                          38.200          35.300
 105952711.262 7  82560624.51148  79120595.079 8  20162128.383
  20162139.172    20162138.938          45.400          49.100          52.300
 133424112.502 7                  99634945.920 7  25389759.508
                  25389769.773          42.600                          45.600
 131240039.351 7                  98003988.354 7  24974142.688
                  24974154.066          42.600                          46.800
 136883514.432 6                 102218228.131 7  26048072.406
                  26048082.070          40.000                          43.200
 137169599.739 5                 102431845.129 6  26102521.992
                  26102533.965          33.600                          36.800
 127715023.309 7                  95371646.559 8  24303359.617
                  24303368.895          45.700                          48.600
 127888344.745 7                  95501073.616 8  24336342.180
                  24336350.824          45.200                          48.000
 25  4 15  0  1 15.0000000  0 21R10G09R18G27G02G04R16G16G26R07R08R19
                                R09G07G08E26E13E04E19E21E23
 122064533.820 5                                  22898984.047    22898981.750
                                        31.300
 121719416.872 5  94846279.29944  90894337.367 7  23162430.805
  23162442.703    23162445.297          33.400          29.700          44.400
 112499244.372 6  87499328.345 7                  21074866.313    21074865.723
  21074874.547                          41.500          42.000
 106494132.276 7  82982525.92048  79524919.562 8  20265170.930
  20265180.801    20265180.574          47.000          50.500          52.800
 118399876.597 6  92259649.01844                  22530732.977
  22530741.438                          38.900          26.700
 123094203.678 5  95917591.49343  91921038.894 7  23424065.172
  23424077.422    23424082.023          34.000          20.600          42.000
 110230309.902 7  85734732.540 7                  20635343.297    20635341.840
  20635350.422                          45.200          44.800
 113386069.216 7  88352793.73945                  21576640.461
  21576648.813                          42.100          31.700
 122580997.690 6  95517666.97743  91537760.351 7  23326363.461
  23326378.133    23326378.406          37.800          22.200          43.900
 127269680.709 5  98987528.451 5                  23775057.367    23775058.098
  23775069.473                          31.400          32.900
 126698443.004 5  98543312.766 5                  23660057.961    23660058.344
  23660064.840                          33.700          32.900
 103746345.008 5  80691467.882 7                  19394240.539    19394238.504
  19394246.180                          34.900          44.400
 106202868.736 7  82602253.146 7                  19888383.992    19888383.258
  19888389.945                          45.100          47.000
 120354885.427 6  93783085.81645                  22902775.750
  22902784.930                          38.800          34.700
 105951745.094 7  82559871.65348  79119873.580 8  20161944.375
  20161955.281    20161955.059          45.000          49.100          52.100
 133421499.071 7                  99632994.342 7  25389262.133
                  25389272.547          42.800                          45.700
 131239830.445 7                  98003832.364 7  24974102.867
                  24974114.477          42.700                          46.900
 136884375.686 6                 102218871.263 7  26048235.891
                  26048245.773          39.700                          42.900
 137172347.609 5                 102433897.125 6  26103044.836
                  26103056.938          33.600                          37.000
 127715775.264 7                  95372208.093 8  24303502.750
                  24303511.926          45.800                          48.500
 127887247.116 7                  95500253.959 8  24336133.352
                  24336141.953          45.300                          48.200
 25  4 15  0  1 16.0000000  0 21R10G09R18G27G02G04R16G16G26R07R08R19
                                R09G07G08E26E13E04E19E21E23
 122061286.205 5                                  22898374.352    22898371.988
                                        30.900
 121721283.259 5  94847733.62345  90895731.090 7  23162785.531
  23162797.961    23162800.633          33.600          30.400          43.900
 112502300.858 6  87501705.600 7                  21075439.422    21075438.121
  21075447.094                          41.900          42.500
 106495646.022 7  82983705.46348  79526049.960 8  20265458.578
  20265468.805    20265468.605          47.000          50.600          53.000
 118396602.453 6  92257097.73844                  22530109.156
  22530118.355                          38.900          26.900
 123097121.083 5  95919864.78143  91923217.468 7  23424620.219
  23424632.645    23424637.238          33.800          20.400          42.000
 110231872.026 7  85735947.513 7                  20635634.680    20635634.367
  20635642.785                          45.300          45.000
 113387954.976 7  88354263.15545                  21576998.703
  21577007.645                          42.100          31.400
 122583503.338 6  95519619.41443  91539631.411 7  23326840.945
  23326855.078    23326855.254          37.600          22.600          43.800
 127272690.897 5  98989869.739 5                  23775619.430    23775620.020
  23775631.938                          31.000          33.100
 126699307.691 5  98543985.261 5                  23660218.352    23660220.172
  23660226.273                          33.800          33.400
 103746087.912 5  80691267.932 7                  19394191.539    19394190.953
  19394198.059                          34.800          44.700
 106201104.632 7  82600881.061 7                  19888054.250    19888052.652
  19888059.566                          45.200          47.100
 120352036.049 6  93780865.52145                  22902233.922
  22902242.793                          38.800          35.100
 105950779.427 7  82559119.18748  79119152.478 8  20161761.047
  20161771.555    20161771.355          45.000          49.200          52.100
 133418885.924 7                  99631042.951 7  25388765.109
                  25388775.230          43.100                          45.800
 131239622.089 7                  98003676.768 7  24974063.125
                  24974074.660          42.300                          47.100
 136885237.374 6                 102219514.717 7  26048399.938
                  26048409.730          40.000                          43.400
 137175095.553 5                 102435949.170 6  26103568.023
                  26103579.703          33.600                          36.700
 127716527.374 7                  95372769.717 8  24303645.734
                  24303655.035          46.300                          48.600
 127886149.542 7                  95499434.346 8  24335924.328
                  24335933.262          44.800                          48.300
 25  4 15  0  1 17.0000000  0 21R10G09R18G27G02G04R16G16G26R07R08R19
                                R09G07G08E26E13E04E19E21E23
 122058038.538 5                                  22897765.266    22897762.730
                                        31.000
 121723150.036 5  94849188.23545  90897125.127 7  23163140.898
  23163153.141    23163155.738          33.700          30.400          44.000
 112505357.983 6  87504083.351 7                  21076011.906    21076011.148
  21076019.773                          41.800          42.300
 106497160.263 7  82984885.39148  79527180.712 8  20265746.734
  20265756.910    20265756.730          46.600          50.600          52.800
 118393328.621 6  92254546.68844                  22529486.266
  22529495.414                          38.700          26.800
 123100038.680 5  95922138.23943  91925396.205 7  23425175.047
  23425187.848    23425192.535          33.700          19.300          42.100
 110233434.595 7  85737162.854 7                  20635927.555    20635927.063
  20635935.211                          45.400          44.800
 113389840.956 7  88355732.75145                  21577357.945
  21577366.438                          42.300          31.500
 122586009.117 6  95521571.96343  91541502.620 7  23327317.242
  23327331.855    23327332.035          36.900          21.700          43.900
 127275701.315 5  98992211.158 5                  23776180.953    23776182.887
  23776194.285                          31.200          32.200
 126700173.082 5  98544658.392 5                  23660380.656    23660381.652
  23660387.973                          34.000          33.500
 103745831.802 5  80691068.716 7                  19394145.398    19394142.500
  19394150.145                          34.700          44.800
 106199340.868 7  82599509.250 7                  19887723.961    19887722.566
  19887729.184                          44.700          47.100
 120349186.975 6  93778645.46545                  22901692.117
  22901700.625                          38.900          35.800
 105949814.267 7  82558367.11948  79118431.754 8  20161577.531
  20161587.805    20161587.625          45.100          49.100          52.200
 133416273.005 7                  99629091.759 7  25388267.758
                  25388277.844          42.900                          45.600
 131239414.252 7                  98003521.563 7  24974023.672
                  24974035.109          42.600                          47.100
 136886099.505 6                 102220158.526 7  26048564.461
                  26048573.699          39.700                          43.600
 137177843.633 5                 102438001.263 6  26104090.953
                  26104102.855          33.500                          37.000
 127717279.583 7                  95373331.442 8  24303789.031
                  24303798.152          45.800                          48.700
 127885052.109 7                  95498614.818 8  24335715.570
                  24335724.324          45.100                          48.200
 25  4 15  0  1 18.0000000  0 21R10G09R18G27G02G04R16G16G26R07R08R19
                                R09G07G08E26E13E04E19E21E23
 122054790.889 5                                  22897153.508    22897153.363
                                        31.600
 121725017.300 5  94850643.25045  90898519.514 7  23163495.719
  23163508.434    23163511.105          34.300          30.200          44.500
 112508415.679 7  87506461.585 7                  21076584.031    21076584.070
  21076592.551                          42.300          42.100
 106498674.930 7  82986065.64648  79528311.805 8  20266035.320
  20266045.262    20266045.051          46.300          50.500          52.900
 118390055.087 6  92251995.88244                  22528863.164
  22528872.539                          38.800          26.600
 123102956.470 5  95924411.84143  91927575.042 6  23425730.031
  23425743.133    23425747.816          33.500          19.000          41.700
 110234997.610 7  85738378.523 7                  20636220.195    20636219.324
  20636227.859                          45.400          44.400
 113391727.129 7  88357202.49045                  21577717.617
  21577725.590                          42.100          31.300
 122588515.089 6  95523524.66843  91543373.928 7  23327794.195
  23327808.793    23327809.059          37.700          22.800          44.200
 127278711.955 5  98994552.825 5                  23776743.453    23776745.168
  23776756.668                          30.100          32.500
 126701039.240 5  98545332.068 5                  23660544.797    23660543.453
  23660549.711                          34.600          33.300
 103745576.573 5  80690870.229 7                  19394097.875    19394094.730
  19394102.391                          34.600          44.400
 106197577.442 7  82598137.704 7                  19887392.844    19887392.199
  19887399.008                          44.700          47.500
 120346338.185 6  93776425.62445                  22901150.266
  22901158.395                          38.700          35.500
 105948849.661 7  82557615.47548  79117711.422 8  20161393.961
  20161404.234    20161404.086          45.800          49.200          52.200
 133413660.356 7                  99627140.755 7  25387770.820
                  25387780.832          42.700                          45.700
 131239206.914 7                  98003366.737 7  24973984.469
                  24973995.809          42.800                          46.800
 136886962.059 6                 102220802.623 7  26048728.008
                  26048737.879          39.400                          43.800
 137180591.799 5                 102440053.518 6  26104613.617
                  26104625.746          33.800                          36.700
 127718031.911 7                  95373893.246 8  24303931.969
                  24303941.371          45.700                          48.400
 127883954.719 7                  95497795.344 8  24335506.891
                  24335515.383          45.300                          48.000
 25  4 15  0  1 19.0000000  0 21R10G09R18G27G02G04R16G16G26R07R08R19
                                R09G07G08E26E13E04E19E21E23
 122051543.183 5                                  22896544.297    22896544.055
                                        30.800
 121726884.901 5  94852098.51645  90899914.144 7  23163851.797
  23163863.699    23163866.578          33.800          30.600          44.700
 112511473.950 7  87508840.229 6                  21077157.461    21077156.770
  21077165.484                          42.100          41.700
 106500190.029 7  82987246.24448  79529443.200 8  20266323.258
  20266333.629    20266333.320          46.400          50.500          52.500
 118386781.841 6  92249445.31444                  22528240.117
  22528249.613                          39.200          26.400
 123105874.291 5  95926685.45943  91929753.962 6  23426285.398
  23426298.539    23426302.855          33.100          19.300          41.700
 110236561.040 7  85739594.527 7                  20636511.914    20636512.008
  20636520.590                          45.300          44.400
 113393613.489 7  88358672.38645                  21578076.633
  21578084.414                          42.100          31.100
 122591021.096 6  95525477.41043  91545245.327 7  23328270.102
  23328285.820    23328286.063          37.600          22.000          44.100
 127281722.977 5  98996894.667 5                  23777305.625    23777307.316
  23777319.188                          30.900          32.500
 126701906.076 5  98546006.258 5                  23660703.828    23660705.148
  23660711.617                          34.500          33.300
 103745322.264 5  80690672.394 7                  19394049.844    19394047.598
  19394054.867                          34.700          44.600
 106195814.310 7  82596766.396 7                  19887062.172    19887062.164
  19887068.852                          44.700          47.600
 120343489.646 6  93774205.98245                  22900607.391
  22900616.309                          38.600          35.700
 105947885.491 7  82556864.17648  79116991.437 8  20161210.727
  20161220.871    20161220.680          45.500          49.200          52.300
 133411047.906 7                  99625189.891 7  25387273.578
                  25387283.613          42.900                          45.800
 131239000.052 7                  98003212.252 7  24973945.188
                  24973956.418          42.700                          46.400
 136887825.024 6                 102221447.050 7  26048892.430
                  26048902.047          39.900                          43.600
 137183340.001 5                 102442105.723 6  26105137.000
                  26105148.535          34.100                          37.100
 127718784.331 7                  95374455.098 8  24304075.227
                  24304084.609          45.600                          48.600
 127882857.379 7                  95496975.900 8  24335297.977
                  24335306.621          45.500                          48.200
 25  4 15  0  1 20.0000000  0 21R10G09R18G27G02G04R16G16G26R07R08R19
                                R09G07G08E26E13E04E19E21E23
 122048295.429 5                                  22895936.289    22895934.254
                                        30.600
 121728752.890 5  94853554.09145  90901309.083 7  23164207.563
  23164219.219    23164222.152          34.500          30.900          44.900
 112514532.782 7  87511219.303 7                  21077730.016    21077729.789
  21077738.523                          42.100          42.100
 106501705.534 7  82988427.15348  79530574.906 8  20266612.063
  20266621.926    20266621.609          46.700          50.500          52.700
 118383508.831 6  92246894.91744                  22527617.023
  22527626.680                          38.600          26.000
 123108792.315 5  95928959.23443  91931932.992 6  23426840.148
  23426853.828    23426858.168          33.300          19.000          41.800
 110238124.914 7  85740810.856 7                  20636804.945    20636804.848
  20636813.336                          45.500          44.300
 113395500.001 7  88360142.39845                  21578435.172
  21578443.672                          42.200          31.000
 122593527.294 6  95527430.27843  91547116.828 7  23328748.234
  23328762.883    23328762.922          37.500          22.600          44.300
 127284734.212 5  98999236.737 5                  23777868.391    23777869.086
  23777881.629                          30.400          32.600
 126702773.539 5  98546680.948 5                  23660864.711    23660866.699
  23660873.563                          34.500          32.700
 103745068.820 5  80690475.340 7                  19394002.313    19393999.934
  19394007.461                          34.900          44.300
 106194051.516 7  82595395.312 7                  19886733.102    19886731.773
  19886738.711                          44.900          47.100
 120340641.285 6  93771986.48245                  22900065.727
  22900074.246                          39.000          35.500
 105946921.808 7  82556113.25448  79116271.801 8  20161026.891
  20161037.426    20161037.246          45.500          49.100          52.500
 133408435.672 7                  99623239.210 7  25386776.289
                  25386786.672          42.500                          45.800
 131238793.673 7                  98003058.143 7  24973905.680
                  24973917.082          42.400                          46.600
 136888688.395 6                 102222091.764 7  26049056.711
                  26049066.488          40.000                          43.300
 137186088.262 5                 102444157.957 6  26105659.984
                  26105671.531          34.000                          37.500
 127719536.817 7                  95375017.037 8  24304218.414
                  24304227.781          46.000                          48.700
 127881760.077 7                  95496156.501 7  24335089.039
                  24335097.844          45.200                          47.900
 25  4 15  0  1 21.0000000  0 21R10G09R18G27G02G04R16G16G26R07R08R19
                                R09G07G08E26E13E04E19E21E23
 122045047.666 5                                  22895327.656    22895324.652
                                        31.000
 121730621.375 5  94855010.06045  90902704.375 7  23164563.438
  23164574.871    23164577.719          34.300          30.400          45.100
 112517592.301 6  87513598.931 7                  21078303.414    21078303.023
  21078311.656                          41.800          42.200
 106503221.560 7  82989608.47448  79531707.014 8  20266900.117
  20266910.402    20266910.168          46.800          50.400          52.500
 118380236.162 6  92244344.80144                  22526994.234
  22527003.871                          38.400          27.300
 123111710.559 5  95931233.15343  91934112.193 6  23427395.656
  23427409.363    23427413.512          33.000          18.300          41.800
 110239689.289 7  85742027.584 7                  20637097.930    20637097.844
  20637106.215                          45.600          43.600
 113397386.815 6  88361612.64545                  21578793.781
  21578802.762                          41.600          31.800
 122596033.694 6  95529383.29843  91548988.485 7  23329225.133
  23329239.770    23329239.734          37.600          22.300          44.300
 127287745.754 5  99001579.096 5                  23778431.148    23778430.918
  23778444.141                          30.100          33.200
 126703641.833 5  98547356.234 5                  23661026.484    23661028.949
  23661035.648                          34.300          31.400
 103744816.417 5  80690278.979 7                  19393956.086    19393952.633
  19393960.387                          35.000          43.200
 106192289.111 7  82594024.559 7                  19886402.859    19886401.961
  19886408.734                          44.700          46.300
 120337793.273 6  93769767.25245                  22899523.211
  22899532.180                          38.600          34.800
 105945958.721 7  82555362.79748  79115552.612 8  20160843.641
  20160854.328    20160853.895          45.500          49.000          52.100
 133405823.778 7                  99621288.767 7  25386279.094
                  25386289.543          42.400                          45.900
 131238587.855 7                  98002904.452 7  24973866.430
                  24973877.871          42.700                          46.300
 136889552.218 6                 102222736.829 7  26049220.969
                  26049230.793          40.000                          43.500
 137188836.658 5                 102446210.330 6  26106183.438
                  26106194.441          33.900                          37.500
 127720289.494 7                  95375579.089 8  24304361.773
                  24304371.086          45.800                          48.500
 127880662.935 7                  95495337.204 8  24334880.359
                  24334888.941          45.300                          48.100
 25  4 15  0  1 22.0000000  0 21R10G09R18G27G02G04R16G16G26R07R08R19
                                R09G07G08E26E13E04E19E21E23
 122041799.875 5                                  22894717.594    22894715.559
                                        30.600
 121732490.167 5  94856466.26345  90904099.942 7  23164918.164
  23164930.406    23164933.324          33.700          30.800          44.600
 112520652.354 6  87515978.977 7                  21078877.555    21078876.344
  21078884.844                          41.400          42.700
 106504737.987 7  82990790.10248  79532839.400 8  20267188.586
  20267198.918    20267198.703          46.800          50.300          52.600
 118376963.747 6  92241794.86044                  22526372.305
  22526381.152                          38.700          27.200
 123114628.883 5  95933507.21043  91936291.486 6  23427951.734
  23427964.559    23427968.602          33.300          18.300          41.400
 110241254.026 7  85743244.603 7                  20637391.719    20637390.586
  20637399.168                          45.100          43.900
 113399273.786 6  88363083.00445                  21579152.961
  21579161.711                          41.400          31.100
 122598540.206 6  95531336.41543  91550860.218 7  23329701.766
  23329716.828    23329716.988          37.700          22.200          44.300
 127290757.624 4  99003921.621 5                  23778995.375    23778993.742
  23779006.840                          29.800          33.100
 126704510.790 5  98548032.098 5                  23661188.219    23661190.535
  23661197.809                          34.400          31.700
 103744564.864 5  80690083.339 7                  19393907.813    19393905.508
  19393913.281                          35.100          43.600
 106190527.007 7  82592654.030 7                  19886072.922    19886071.922
  19886078.715                          44.700          46.500
 120334945.536 6  93767548.23245                  22898981.359
  22898990.258                          38.600          35.000
 105944996.079 7  82554612.69048  79114833.744 8  20160660.773
  20160671.051    20160670.844          45.700          49.100          52.100
 133403212.046 7                  99619338.440 7  25385782.398
                  25385792.391          42.500                          45.500
 131238382.499 7                  98002751.101 7  24973827.453
                  24973838.840          42.600                          46.600
 136890416.455 6                 102223382.207 7  26049385.734
                  26049395.070          39.900                          43.600
 137191585.071 5                 102448262.741 6  26106706.484
                  26106717.645          33.800                          36.800
 127721042.236 7                  95376141.189 8  24304504.813
                  24304514.293          45.500                          48.300
 127879565.801 7                  95494517.925 8  24334671.406
                  24334680.250          45.300                          48.300
 25  4 15  0  1 23.0000000  0 21R10G09R18G27G02G04R16G16G26R07R08R19
                                R09G07G08E26E13E04E19E21E23
 122038552.146 5                                  22894108.813    22894106.098
                                        31.200
 121734359.491 5  94857922.88245  90905495.839 7  23165274.172
  23165286.293    23165289.109          33.700          31.100          44.200
 112523713.022 6  87518359.483 7                  21079450.695    21079449.293
  21079458.184                          41.800          42.300
 106506254.865 7  82991972.08548  79533972.142 8  20267477.242
  20267487.672    20267487.285          46.500          50.300          52.800
 118373691.672 6  92239245.17644                  22525749.445
  22525758.469                          38.400          27.100
 123117547.425 5  95935781.39943  91938470.876 6  23428506.727
  23428520.016    23428523.992          32.900          19.000          41.300
 110242819.208 7  85744461.970 7                  20637684.023    20637683.664
  20637692.035                          45.200          43.700
 113401160.979 6  88364553.54145                  21579512.211
  21579520.566                          41.400          30.800
 122601046.861 6  95533289.64943  91552732.068 7  23330179.648
  23330193.918    23330193.883          37.500          22.800          44.200
 127293769.630 4  99006264.268 5                  23779558.195    23779556.320
  23779569.547                          29.700          32.900
 126705380.481 5  98548708.550 5                  23661350.883    23661352.934
  23661360.266                          34.500          32.400
 103744314.267 5  80689888.455 7                  19393860.883    19393858.977
  19393866.438                          35.000          43.500
 106188765.207 7  82591283.742 7                  19885742.719    19885742.082
  19885748.816                          45.100          47.000
 120332098.034 6  93765329.40545                  22898440.109
  22898448.488                          38.800          34.600
 105944033.933 7  82553862.96848  79114115.277 8  20160477.836
  20160488.008    20160487.699          45.900          49.100          52.400
 133400600.565 7                  99617388.321 7  25385285.336
                  25385295.598          42.200                          45.600
 131238177.656 7                  98002598.128 7  24973788.453
                  24973799.895          42.800                          46.700
 136891281.148 6                 102224027.905 7  26049550.203
                  26049559.590          39.900                          43.300
 137194333.605 5                 102450315.197 6  26107229.180
                  26107240.410          33.600                          36.900
 127721795.082 7                  95376703.390 8  24304648.063
                  24304657.570          45.100                          48.400
 127878468.750 7                  95493698.707 8  24334462.703
                  24334471.469          45.000                          48.400
 25  4 15  0  1 24.0000000  0 21R10G09R18G27G02G04R16G16G26R07R08R19
                                R09G07G08E26E13E04E19E21E23
 122035304.273 5                                  22893499.664    22893497.320
                                        30.300
 121736229.173 5  94859379.77945  90906891.991 7  23165630.047
  23165642.027    23165644.891          34.000          31.100          44.600
 112526774.212 6  87520740.430 7                  21080024.445    21080022.848
  21080031.699                          41.700          42.800
 106507772.161 7  82993154.39048  79535105.188 8  20267766.133
  20267776.418    20267776.039          46.700          50.400          52.800
 118370419.829 6  92236695.69944                  22525126.711
  22525135.953                          38.300          26.800
 123120466.116 5  95938055.67943  91940650.376 6  23429062.047
  23429075.180    23429079.496          32.400          19.900          41.600
 110244384.792 7  85745679.659 7                  20637976.398    20637976.715
  20637985.152                          45.300          44.100
 113403048.313 6  88366024.18845                  21579871.477
  21579879.852                          41.200          31.100
 122603553.630 6  95535242.96543  91554604.011 7  23330656.633
  23330670.844    23330670.949          37.400          22.600          44.100
 127296781.956 5  99008607.165 5                  23780119.391    23780118.625
  23780132.340                          30.100          32.700
 126706250.864 5  98549385.550 5                  23661514.242    23661515.203
  23661522.625                          33.800          32.400
 103744064.592 5  80689694.255 7                  19393814.945    19393812.652
  19393819.719                          35.400          43.800
 106187003.685 7  82589913.666 7                  19885413.305    19885412.457
  19885418.844                          45.100          47.300
 120329250.755 6  93763110.74245                  22897897.898
  22897906.738                          38.600          34.900
 105943072.257 7  82553113.61348  79113397.139 8  20160294.070
  20160304.934    20160304.762          45.600          48.900          52.100
 133397989.312 7                  99615438.350 7  25384788.438
                  25384798.660          42.700                          45.400
 131237973.255 7                  98002445.494 7  24973749.516
                  24973760.891          42.600                          46.300
 136892146.170 6                 102224673.886 7  26049714.773
                  26049724.336          39.900                          43.200
 137197082.144 5                 102452367.669 6  26107752.102
                  26107763.641          34.000                          36.400
 127722548.008 7                  95377265.641 8  24304791.516
                  24304800.730          45.300                          48.400
 127877371.734 7                  95492879.497 8  24334254.211
                  24334262.680          45.200                          48.600
 25  4 15  0  1 25.0000000  0 21R10G09R18G27G02G04R16G16G26R07R08R19
                                R09G07G08E26E13E04E19E21E23
 122032056.467 5                                  22892888.672    22892887.949
                                        30.800
 121738099.290 5  94860837.01045  90908288.532 7  23165986.500
  23165998.082    23166000.840          34.400          30.800          44.300
 112529836.088 6  87523121.886 7                  21080597.672    21080596.379
  21080605.348                          41.600          42.400
 106509289.961 7  82994337.09148  79536238.602 8  20268055.008
  20268065.176    20268064.910          46.300          50.300          52.500
 118367148.371 6  92234146.51344                  22524504.641
  22524513.414                          37.800          28.200
 123123384.866 5  95940330.02043  91942830.025 6  23429617.703
  23429630.832    23429634.719          33.100          19.600          41.400
 110245950.882 7  85746897.707 7                  20638270.609    20638269.949
  20638278.270                          45.100          44.200
 113404935.937 6  88367495.06245                  21580230.469
  21580239.043                          40.800          31.200
 122606060.636 6  95537196.47743  91556476.103 7  23331132.500
  23331147.738    23331148.109          37.500          22.800          44.200
 127299794.502 4  99010950.254 5                  23780682.211    23780681.516
  23780695.039                          29.800          32.100
 126707122.108 5  98550063.125 5                  23661677.461    23661677.664
  23661685.176                          33.700          32.100
 103743815.927 5  80689500.838 7                  19393769.109    19393765.859
  19393773.340                          35.100          43.800
 106185242.546 7  82588543.896 7                  19885082.953    19885082.402
  19885088.918                          44.500          47.200
 120326403.810 6  93760892.35045                  22897356.180
  22897364.805                          38.800          35.000
 105942111.153 7  82552364.70048  79112679.424 8  20160111.516
  20160121.973    20160121.781          45.400          49.200          52.200
 133395378.340 7                  99613488.603 7  25384291.570
                  25384301.734          42.700                          45.800
 131237769.457 7                  98002293.304 7  24973710.797
                  24973722.195          42.400                          46.100
 136893011.746 6                 102225320.242 7  26049879.414
                  26049889.141          39.900                          42.900
 137199830.837 5                 102454420.256 6  26108275.227
                  26108286.902          34.200                          36.700
 127723301.098 7                  95377828.014 8  24304934.680
                  24304944.102          45.200                          48.200
 127876274.860 7                  95492060.406 8  24334045.438
                  24334053.953          45.200                          48.600
 25  4 15  0  1 26.0000000  0 21R10G09R18G27G02G04R16G16G26R07R08R19
                                R09G07G08E26E13E04E19E21E23
 122028808.567 5                                  22892281.188    22892278.992
                                        30.600
 121739969.765 5  94862294.52645  90909685.326 7  23166341.797
  23166354.070    23166356.574          35.000          31.100          44.600
 112532898.487 6  87525503.764 7                  21081171.055    21081169.996
  21081178.973                          41.800          42.800
 106510808.165 7  82995520.10348  79537372.334 8  20268343.844
  20268354.121    20268353.801          46.800          50.400          52.500
 118363877.140 6  92231597.51444                  22523881.875
  22523890.891                          37.800          27.200
 123126303.841 5  95942604.55343  91945009.768 6  23430174.141
  23430186.109    23430190.188          33.400          19.000          41.100
 110247517.330 7  85748116.073 7                  20638563.453    20638563.020
  20638571.547                          45.500          44.200
 113406823.719 6  88368966.06045                  21580589.813
  21580598.313                          41.300          30.800
 122608567.708 6  95539150.03843  91558348.274 7  23331609.602
  23331624.996    23331625.230          37.700          22.300          43.700
 127302807.328 5  99013293.535 5                  23781244.500    23781244.359
  23781257.840                          30.200          32.400
 126707993.905 5  98550741.228 5                  23661839.773    23661840.223
  23661847.898                          34.600          32.300
 103743568.100 5  80689308.090 7                  19393721.430    19393719.949
  19393726.879                          34.800          43.700
 106183481.685 7  82587174.349 7                  19884753.164    19884752.699
  19884759.203                          44.300          47.000
 120323557.126 6  93758674.14745                  22896814.180
  22896823.055                          38.400          35.100
 105941150.512 7  82551616.14948  79111962.068 8  20159928.641
  20159939.406    20159939.039          45.900          49.100          52.400
 133392767.594 7                  99611539.012 7  25383794.602
                  25383804.852          43.000                          45.700
 131237566.099 7                  98002141.448 7  24973672.055
                  24973683.434          42.500                          46.100
 136893877.688 6                 102225966.885 7  26050044.461
                  26050053.734          39.700                          43.000
 137202579.499 5                 102456472.821 6  26108798.375
                  26108809.664          34.500                          36.500
 127724054.273 7                  95378390.443 8  24305077.844
                  24305087.414          45.400                          48.600
 127875178.008 7                  95491241.352 8  24333836.695
                  24333845.352          45.200                          48.200
 25  4 15  0  1 27.0000000  0 21R10G09R18G27G02G04R16G16G26R07R08R19
                                R09G07G08E26E13E04E19E21E23
 122025560.714 5                                  22891672.008    22891670.063
                                        30.800
 121741840.650 5  94863752.35845  90911082.421 7  23166698.141
  23166710.105    23166712.777          34.900          31.600          44.700
 112535961.509 6  87527886.091 7                  21081744.234    21081743.781
  21081752.727                          41.300          42.400
 106512326.818 7  82996703.47548  79538506.389 8  20268632.422
  20268643.039    20268642.742          47.000          50.200          52.500
 118360606.163 6  92229048.70444                  22523259.516
  22523268.383                          38.300          26.200
 123129222.937 5  95944879.15243  91947189.631 6  23430728.445
  23430741.672    23430745.527          32.900          19.900          41.300
 110249084.218 7  85749334.746 7                  20638856.492    20638856.277
  20638864.840                          45.000          44.100
 113408711.682 6  88370437.19645                  21580948.977
  21580957.387                          41.300          30.500
 122611074.973 6  95541103.73343  91560220.555 7  23332087.055
  23332102.031    23332102.344          37.400          22.500          43.900
 127305820.341 4  99015637.045 5                  23781807.398    23781807.336
  23781820.598                          29.400          32.700
 126708866.467 5  98551419.894 5                  23662003.719    23662002.961
  23662010.754                          34.700          32.200
 103743321.264 5  80689116.055 7                  19393675.250    19393673.629
  19393680.871                          35.400          43.800
 106181721.168 7  82585805.057 7                  19884424.117    19884422.891
  19884429.359                          44.600          47.000
 120320710.660 6  93756456.12445                  22896272.398
  22896281.660                          38.300          34.900
 105940190.357 7  82550867.97448  79111245.072 8  20159745.602
  20159756.422    20159756.289          45.800          48.900          52.200
 133390157.065 7                  99609589.600 7  25383298.008
                  25383308.125          42.400                          45.500
 131237363.236 7                  98001989.958 7  24973633.484
                  24973644.879          43.000                          46.400
 136894744.011 6                 102226613.827 7  26050209.188
                  26050218.699          39.800                          42.900
 137205328.273 5                 102458525.477 6  26109321.516
                  26109332.758          34.200                          36.400
 127724807.534 7                  95378952.942 8  24305221.172
                  24305230.633          45.600                          49.000
 127874081.231 7                  95490422.320 8  24333627.898
                  24333636.563          45.300                          48.200
 25  4 15  0  1 28.0000000  0 21R10G09R18G27G02G04R16G16G26R07R08R19
                                R09G07G08E26E13E04E19E21E23
 122022312.766 5                                  22891062.594    22891060.652
                                        31.000
 121743712.014 5  94865210.56445  90912479.816 7  23167054.016
  23167066.238    23167068.922          35.000          31.500          44.700
 112539025.103 6  87530268.895 7                  21082318.133    21082317.625
  21082326.563                          41.200          42.300
 106513845.886 7  82997887.16748  79539640.757 8  20268922.320
  20268932.141    20268931.863          47.400          50.400          52.400
 118357335.535 6  92226500.16944                  22522637.781
  22522646.078                          38.500          27.000
 123132142.188 5  95947153.89643  91949369.564 6  23431283.914
  23431297.141    23431301.160          33.100          20.100          41.300
 110250651.543 7  85750553.778 7                  20639149.742    20639149.770
  20639158.309                          45.500          44.200
 113410599.853 6  88371908.50045                  21581308.859
  21581316.844                          41.800          30.800
 122613582.317 6  95543057.50543  91562092.936 7  23332563.531
  23332579.086    23332579.527          37.700          22.300          44.100
 127308833.677 4  99017980.727 5                  23782370.375    23782370.480
  23782383.473                          29.900          33.000
 126709739.759 5  98552099.112 5                  23662165.336    23662166.109
  23662173.645                          34.600          32.200
 103743075.267 5  80688924.779 7                  19393628.250    19393627.164
  19393634.820                          35.400          44.300
 106179960.975 7  82584436.017 7                  19884094.297    19884093.461
  19884099.797                          44.500          46.600
 120317864.462 6  93754238.31045                  22895731.523
  22895740.281                          38.300          34.700
 105939230.698 7  82550120.19348  79110528.447 8  20159563.430
  20159573.793    20159573.699          45.800          49.000          52.100
 133387546.762 7                  99607640.345 7  25382801.203
                  25382811.395          42.300                          45.700
 131237160.862 7                  98001838.834 7  24973594.914
                  24973606.406          43.000                          46.600
 136895610.785 6                 102227261.085 7  26050373.945
                  26050383.648          39.700                          42.600
 137208077.134 5                 102460578.178 6  26109844.234
                  26109856.004          34.500                          37.000
 127725560.900 7                  95379515.526 8  24305364.633
                  24305374.203          45.800                          48.600
 127872984.528 7                  95489603.346 8  24333419.133
                  24333427.816          45.500                          48.300
 25  4 15  0  1 29.0000000  0 21R10G09R18G27G02G04R16G16G26R07R08R19
                                R09G07G08E26E13E04E19E21E23
 122019064.864 5                                  22890453.930    22890451.203
                                        30.700
 121745583.720 5  94866669.03745  90913877.548 7  23167410.891
  23167422.410    23167425.281          35.200          31.200          45.000
 112542089.298 6  87532652.159 7                  21082892.258    21082891.652
  21082900.539                          41.300          42.500
 106515365.433 7  82999071.23048  79540775.487 8  20269211.172
  20269221.242    20269221.008          47.200          50.300          52.600
 118354065.171 6  92223951.82844                  22522014.703
  22522023.887                          39.200          27.000
 123135061.668 5  95949428.80243  91951549.666 6  23431839.305
  23431852.660    23431856.582          32.600          19.300          41.100
 110252219.349 7  85751773.180 7                  20639443.117    20639443.215
  20639451.777                          45.300          44.300
 113412488.257 6  88373379.98345                  21581667.203
  21581676.207                          41.700          30.100
 122616089.900 6  95545011.44743  91563965.445 7  23333041.125
  23333056.277    23333056.582          37.800          22.600          43.900
 127311847.332 5  99020324.649 5                  23782934.852    23782933.215
  23782946.195                          30.300          32.600
 126710613.745 5  98552778.903 5                  23662328.805    23662328.852
  23662336.734                          34.300          32.900
 103742830.245 5  80688734.209 7                  19393582.469    19393581.441
  19393588.988                          35.100          44.500
 106178201.154 7  82583067.260 7                  19883764.750    19883763.805
  19883770.180                          44.700          47.000
 120315018.556 6  93752020.72545                  22895190.156
  22895198.539                          38.700          34.900
 105938271.563 7  82549372.81848  79109812.215 8  20159381.141
  20159391.355    20159391.168          45.800          49.000          52.300
 133384936.730 7                  99605691.309 7  25382304.422
                  25382314.563          42.100                          45.800
 131236959.017 7                  98001688.100 7  24973556.680
                  24973567.867          42.600                          46.600
 136896478.003 6                 102227908.677 7  26050539.219
                  26050548.684          40.000                          42.700
 137210826.080 5                 102462630.977 6  26110367.781
                  26110379.152          34.300                          37.300
 127726314.388 7                  95380078.184 8  24305508.172
                  24305517.508          46.000                          48.800
 127871887.896 7                  95488784.440 8  24333210.453
                  24333219.184          45.500                          48.300
 25  4 15  0  1 30.0000000  0 21R10G09R18G27G02G04R16G16G26R07R08R19
                                R09G07G08E26E13E04E19E21E23
 122015816.811 5                                  22889845.805    22889841.879
                                        30.500
 121747455.848 5  94868127.84045  90915275.577 7  23167766.492
  23167778.637    23167781.320          35.000          31.200          45.300
 112545154.111 6  87535035.894 7                  21083466.555    21083465.941
  21083474.746                          41.300          42.400
 106516885.419 7  83000255.62948  79541910.539 8  20269500.164
  20269510.523    20269510.270          47.300          50.200          52.600
 118350795.110 6  92221403.72544                  22521392.422
  22521401.863                          39.200          27.400
 123137981.245 5  95951703.80643  91953729.886 6  23432395.391
  23432408.387    23432412.016          33.000          19.600          41.100
 110253787.566 7  85752992.912 7                  20639736.695    20639736.602
  20639745.359                          45.000          43.900
 113414376.838 6  88374851.60345                  21582027.016
  21582035.570                          41.900          31.200
 122618597.577 6  95546965.48943  91565838.064 7  23333518.625
  23333533.527    23333533.793          38.000          22.900          43.800
 127314861.181 5  99022668.785 5                  23783497.703    23783496.305
  23783509.184                          30.700          32.200
 126711488.506 5  98553459.224 5                  23662492.852    23662492.406
  23662500.000                          34.400          32.600
 103742586.179 5  80688544.334 7                  19393537.594    19393535.746
  19393543.398                          34.900          44.200
 106176441.656 7  82581698.749 7                  19883434.734    19883434.543
  19883440.668                          44.500          46.700
 120312172.903 6  93749803.33945                  22894648.172
  22894657.191                          38.700          34.700
 105937312.921 7  82548625.82648  79109096.349 8  20159198.547
  20159208.879    20159208.754          45.400          48.900          52.000
 133382326.944 6                  99603742.442 7  25381807.898
                  25381817.840          41.900                          45.700
 131236757.664 7                  98001537.743 7  24973518.344
                  24973529.648          42.800                          46.500
 136897345.632 6                 102228556.580 7  26050703.836
                  26050713.930          40.200                          43.100
 137213575.097 5                 102464683.804 6  26110891.055
                  26110902.324          34.000                          37.100
 127727067.997 7                  95380640.935 8  24305651.539
                  24305660.844          45.600                          48.900
 127870791.353 7                  95487965.600 8  24333002.039
                  24333010.484          45.300                          48.500
 25  4 15  0  1 31.0000000  0 21R10G09R18G27G02G04R16G16G26R07R08R19
                                R09G07G08E26E13E04E19E21E23
 122012568.874 5                                  22889235.898    22889232.926
                                        31.100
 121749328.433 5  94869586.99745  90916673.925 7  23168122.914
  23168134.902    23168137.723          35.400          31.100          44.700
 112548219.511 6  87537420.092 7                  21084041.195    21084040.293
  21084048.898                          41.500          42.200
 106518405.866 7  83001440.39548  79543045.935 8  20269789.555
  20269799.871    20269799.613          47.200          50.300          52.700
 118347525.350 6  92218855.86444                  22520770.547
  22520779.676                          39.200          27.400
 123140900.981 5  95953978.90243  91955910.221 6  23432950.961
  23432964.285    23432967.555          32.800          19.000          41.400
 110255356.250 7  85754212.986 7                  20640030.953    20640030.512
  20640039.039                          45.000          43.500
 113416265.625 7  88376323.38545                  21582386.023
  21582395.023                          42.100          30.900
 122621105.420 6  95548919.65743  91567710.801 7  23333995.508
  23334010.734    23334011.051          37.700          22.300          44.000
 127317875.359 4  99025013.126 5                  23784061.133    23784058.832
  23784072.145                          29.600          32.500
 126712363.935 5  98554140.115 5                  23662655.211    23662655.777
  23662663.336                          35.200          33.100
 103742342.987 5  80688355.221 7                  19393492.141    19393490.488
  19393498.000                          34.800          44.000
 106174682.487 7  82580330.523 7                  19883105.656    19883104.988
  19883111.211                          44.500          46.500
 120309327.522 6  93747586.16345                  22894106.422
  22894115.805                          38.900          35.000
 105936354.814 7  82547879.25348  79108380.879 8  20159016.266
  20159026.457    20159026.488          45.700          49.100          52.100
 133379717.396 7                  99601793.761 7  25381311.367
                  25381321.398          42.300                          45.600
 131236556.808 7                  98001387.768 7  24973479.969
                  24973491.402          42.300                          46.500
 136898213.726 6                 102229204.820 7  26050869.414
                  26050878.977          40.400                          43.200
 137216324.221 5                 102466736.741 6  26111413.906
                  26111425.473          33.600                          36.700
 127727821.682 7                  95381203.775 8  24305795.000
                  24305804.270          45.700                          48.700
 127869694.880 7                  95487146.790 8  24332793.320
                  24332801.727          45.300                          48.600
 25  4 15  0  1 32.0000000  0 21R10G09R18G27G02G04R16G16G26R07R08R19
                                R09G07G08E26E13E04E19E21E23
 122009320.870 5                                  22888624.906    22888623.449
                                        30.500
 121751201.421 5  94871046.47245  90918072.561 7  23168480.180
  23168491.512    23168494.219          35.300          31.200          45.000
 112551285.511 6  87539804.739 7                  21084614.391    21084614.176
  21084623.355                          41.000          42.200
 106519926.734 7  83002625.48348  79544181.647 8  20270078.969
  20270089.301    20270089.000          46.700          50.300          52.500
 118344255.859 6  92216308.21644                  22520148.203
  22520157.500                          39.200          28.000
 123143820.837 5  95956254.12943  91958090.638 6  23433507.313
  23433519.973    23433523.355          33.500          19.900          41.100
 110256925.317 7  85755433.376 7                  20640323.758    20640324.063
  20640332.703                          44.900          43.800
 113418154.633 6  88377795.33445                  21582745.703
  21582754.520                          41.900          31.200
 122623613.382 6  95550873.89943  91569583.628 7  23334473.555
  23334487.902    23334488.012          37.700          22.500          43.800
 127320889.730 5  99027357.622 5                  23784624.727    23784622.492
  23784635.063                          30.300          31.500
 126713240.095 5  98554821.552 5                  23662820.984    23662819.719
  23662826.973                          35.000          32.400
 103742100.746 5  80688166.803 7                  19393446.961    19393445.617
  19393452.785                          34.600          43.700
 106172923.671 7  82578962.551 7                  19882776.578    19882775.320
  19882781.809                          44.900          47.100
 120306482.427 6  93745369.20145                  22893565.086
  22893574.445                          38.600          35.000
 105935397.164 7  82547133.03248  79107665.756 8  20158834.102
  20158844.301    20158844.270          46.000          49.100          52.200
 133377108.102 7                  99599845.245 7  25380814.609
                  25380825.000          42.400                          45.700
 131236356.458 7                  98001238.149 7  24973442.031
                  24973453.309          43.000                          46.600
 136899082.195 6                 102229853.360 7  26051034.852
                  26051044.508          40.000                          42.800
 137219073.388 5                 102468789.692 6  26111936.945
                  26111948.379          34.100                          36.400
 127728575.505 7                  95381766.679 8  24305938.516
                  24305947.719          45.800                          48.000
 127868598.486 7                  95486328.050 8  24332584.711
                  24332593.102          44.800                          48.200
 25  4 15  0  1 33.0000000  0 21R10G09R18G27G02G04R16G16G26R07R08R19
                                R09G07G08E26E13E04E19E21E23
 122006072.866 5                                  22888014.805    22888014.316
                                        30.600
 121753074.781 5  94872506.23645  90919471.516 7  23168836.320
  23168848.008    23168850.652          35.800          30.900          45.300
 112554352.083 6  87542189.865 7                  21085189.617    21085188.664
  21085197.844                          40.800          42.800
 106521448.062 7  83003810.93148  79545317.703 8  20270368.578
  20270378.719    20270378.457          46.900          50.200          52.800
 118340986.679 6  92213760.81044                  22519525.852
  22519535.434                          39.200          27.800
 123146740.956 5  95958529.52743  91960271.191 6  23434063.391
  23434075.586    23434079.102          33.700          19.600          41.100
 110258494.821 7  85756654.097 7                  20640618.250    20640618.332
  20640626.621                          45.200          44.200
 113420043.819 6  88379267.42945                  21583105.492
  21583113.945                          41.700          30.900
 122626121.505 6  95552828.26443  91571456.581 7  23334949.711
  23334965.297    23334965.465          38.100          22.800          43.700
 127323904.427 5  99029702.344 5                  23785187.414    23785185.520
  23785198.105                          30.500          31.000
 126714117.012 5  98555503.640 5                  23662985.086    23662983.457
  23662990.805                          35.300          32.800
 103741859.429 5  80687979.115 7                  19393402.398    19393400.316
  19393407.641                          34.800          44.000
 106171165.182 7  82577594.823 7                  19882447.586    19882446.266
  19882452.449                          44.800          46.900
 120303637.592 6  93743152.44245                  22893023.875
  22893032.953                          38.400          35.000
 105934440.058 7  82546387.23048  79106951.014 8  20158652.086
  20158662.281    20158662.121          45.900          49.200          52.100
 133374499.016 7                  99597896.935 7  25380318.391
                  25380328.262          42.400                          45.700
 131236156.635 7                  98001088.915 7  24973403.922
                  24973415.145          42.700                          46.600
 136899951.107 6                 102230502.226 7  26051200.102
                  26051209.730          39.800                          43.100
 137221822.710 5                 102470842.708 6  26112460.281
                  26112471.645          33.500                          36.500
 127729329.437 7                  95382329.666 8  24306082.219
                  24306091.230          45.600                          48.300
 127867502.156 7                  95485509.360 8  24332376.109
                  24332384.582          45.000                          48.200
 25  4 15  0  1 34.0000000  0 21R10G09R18G27G02G04R16G16G26R07R08R19
                                R09G07G08E26E13E04E19E21E23
 122002824.725 5                                  22887407.078    22887404.953
                                        30.300
 121754948.551 5  94873966.30745  90920870.761 7  23169193.320
  23169204.566    23169207.238          35.500          31.500          45.100
 112557419.241 6  87544575.420 7                  21085764.852    21085763.500
  21085772.328                          40.800          42.700
 106522969.792 7  83004996.69648  79546454.056 8  20270658.391
  20270668.332    20270668.047          47.000          50.300          52.500
 118337717.751 6  92211213.60144                  22518904.461
  22518913.422                          39.800          27.300
 123149661.103 5  95960804.99943  91962451.842 6  23434619.086
  23434631.227    23434634.707          33.400          20.400          41.600
 110260064.757 7  85757875.149 7                  20640912.336    20640911.980
  20640920.637                          45.100          44.000
 113421933.201 7  88380739.66845                  21583464.586
  21583473.637                          42.100          31.500
 122628629.770 6  95554782.76543  91573329.613 7  23335427.727
  23335442.555    23335442.676          37.600          22.900          43.900
 127326919.250 5  99032047.264 5                  23785750.867    23785748.617
  23785760.980                          30.000          30.600
 126714994.584 5  98556186.202 5                  23663149.133    23663147.652
  23663154.617                          35.300          32.200
 103741619.033 5  80687792.162 7                  19393357.102    19393355.453
  19393362.707                          35.100          43.800
 106169406.964 7  82576227.336 7                  19882118.242    19882117.043
  19882123.148                          44.800          47.300
 120300793.005 6  93740935.87745                  22892482.477
  22892491.492                          38.800          35.200
 105933483.374 7  82545641.76748  79106236.634 8  20158469.570
  20158480.207    20158479.965          46.000          48.900          52.100
 133371890.178 7                  99595948.768 7  25379821.773
                  25379831.914          42.400                          46.000
 131235957.268 7                  98000940.032 7  24973366.070
                  24973377.168          43.000                          46.700
 136900820.425 6                 102231151.369 7  26051365.320
                  26051375.176          39.700                          43.000
 137224571.922 5                 102472895.738 6  26112983.672
                  26112994.777          33.800                          36.800
 127730083.413 7                  95382892.714 8  24306225.438
                  24306234.680          45.900                          48.000
 127866405.847 7                  95484690.691 8  24332167.273
                  24332175.867          45.300                          48.100
 25  4 15  0  1 35.0000000  0 21R10G09R18G27G02G04R16G16G26R07R08R19
                                R09G07G08E26E13E04E19E21E23
 121999576.702 5                                  22886796.758    22886795.598
                                        30.600
 121756822.726 5  94875426.69945  90922270.332 7  23169549.523
  23169561.266    23169563.883          35.700          30.900          45.400
 112560487.029 6  87546961.458 7                  21086339.148    21086337.898
  21086347.172                          41.100          42.700
 106524492.030 7  83006182.85548  79547590.793 8  20270947.719
  20270957.914    20270957.730          46.700          50.200          52.500
 118334449.182 6  92208666.66344                  22518281.742
  22518291.387                          39.500          27.200
 123152581.465 5  95963080.60043  91964632.643 6  23435173.586
  23435186.816    23435190.570          33.300          20.100          41.300
 110261635.180 7  85759096.581 7                  20641205.539    20641205.988
  20641214.598                          44.900          43.900
 113423822.834 6  88382212.12145                  21583824.344
  21583833.203                          41.600          30.900
 122631138.225 6  95556737.41143  91575202.798 7  23335904.688
  23335920.051    23335920.094          37.200          21.500          43.700
 127329934.467 5  99034392.418 5                  23786313.656    23786312.156
  23786323.961                          30.100          31.400
 126715872.979 5  98556869.373 5                  23663314.109    23663311.641
  23663318.785                          35.100          32.800
 103741379.604 5  80687605.941 7                  19393311.453    19393310.469
  19393317.977                          34.800          44.100
 106167649.125 7  82574860.114 7                  19881788.719    19881787.789
  19881794.070                          44.600          47.000
 120297948.690 6  93738719.53345                  22891941.156
  22891950.313                          39.000          35.100
 105932527.288 7  82544896.76648  79105522.663 8  20158287.953
  20158298.188    20158298.063          46.100          49.100          52.100
 133369281.622 7                  99594000.823 7  25379325.359
                  25379335.496          42.600                          46.100
 131235758.420 7                  98000791.562 7  24973328.094
                  24973339.395          42.900                          46.900
 136901690.188 6                 102231800.885 7  26051530.945
                  26051540.957          39.600                          42.600
 137227321.364 5                 102474948.839 6  26113506.438
                  26113517.801          33.900                          36.900
 127730837.593 7                  95383455.882 8  24306368.992
                  24306378.203          45.700                          48.300
 127865309.671 7                  95483872.123 7  24331958.758
                  24331967.203          45.100                          47.800
 25  4 15  0  1 36.0000000  0 21R10G09R18G27G02G04R16G16G26R07R08R19
                                R09G07G08E26E13E04E19E21E23
 121996328.572 5                                  22886187.063    22886186.414
                                        30.700
 121758697.344 5  94876887.43745  90923670.180 7  23169906.484
  23169917.762    23169920.570          35.800          31.200          45.300
 112563555.297 6  87549347.905 7                  21086913.703    21086912.832
  21086922.035                          41.800          42.600
 106526014.652 7  83007369.31148  79548727.813 8  20271237.773
  20271247.758    20271247.516          46.800          50.300          52.500
 118331180.830 6  92206119.88644                  22517659.852
  22517669.273                          40.200          27.200
 123155501.935 5  95965356.26743  91966813.496 6  23435730.383
  23435742.527    23435746.453          33.700          19.600          41.400
 110263205.979 7  85760318.330 7                  20641500.656    20641500.121
  20641508.645                          44.700          44.000
 113425712.591 6  88383684.64245                  21584184.430
  21584192.602                          41.000          31.200
 122633646.738 6  95558692.07643  91577076.043 7  23336382.523
  23336397.262    23336397.582          37.100          22.600          44.100
 127332949.901 5  99036737.753 5                  23786878.141    23786875.500
  23786887.176                          30.600          30.900
 126716752.002 5  98557553.058 5                  23663479.375    23663476.148
  23663482.957                          34.800          32.700
 103741141.043 5  80687420.359 7                  19393266.422    19393266.059
  19393273.305                          34.800          44.100
 106165891.511 7  82573493.094 7                  19881460.070    19881458.750
  19881464.902                          45.100          46.700
 120295104.611 6  93736503.37145                  22891400.313
  22891409.320                          38.800          35.000
 105931571.609 7  82544152.08348  79104809.018 8  20158106.188
  20158116.445    20158116.273          46.200          49.200          52.200
 133366673.245 7                  99592052.999 7  25378829.039
                  25378839.223          42.600                          46.000
 131235560.042 7                  98000643.416 7  24973290.305
                  24973301.645          43.000                          47.300
 136902560.350 6                 102232450.666 7  26051696.523
                  26051706.348          39.800                          43.000
 137230070.819 5                 102477002.015 6  26114029.930
                  26114041.133          33.600                          37.200
 127731591.777 7                  95384019.077 8  24306512.375
                  24306521.688          45.500                          48.600
 127864213.500 7                  95483053.559 7  24331750.086
                  24331758.645          45.100                          47.900
